Distributors,Address,zipcode,lat,long,operating radius,operating districts
FrigorTec GmbH,"88279 Amtzell, Germany",88279,47.71538925,9.761246295289354,800,RegionalverbandSaarbruecken;KoblenzStadt;HelmstedtLand;Dahme_SpreewaldLand;AhrweilerLand;LandauinderPfalzStadt;Pfaffenhofena.d.IlmLand;RosenheimLandLand;DelmenhorstStadt;GoerlitzLand;SchaumburgLand;VogtlandLand;Bernkastel_WittlichLand;BarnimLand;Anhalt_BitterfeldLand
Rülke Kühlanlagen GmbH,"08056 Zwickau, Germany",8056,50.71011275612076,12.491740090283173,800,NuernbergerLandLand;WolfenbuettelLand;UelzenLand;PirmasensStadt;HerneStadt;Dessau_RosslauStadt;BirkenfeldLand;AnsbachLandLand;VulkaneifelLand;SpeyerStadt;Amberg;Marburg_BiedenkopfLand;MannheimUniversitaetsstadt;VerdenLand;BarnimLand
Wärmetechnik Quedlinburg GmbH & Co. KG,"06484 Quedlinburg, Germany",6484,51.79354546325875,11.150819965996627,800,FreisingLand;HildesheimLand;Maerkischer;NeustadtanderWeinstraße;SchaumburgLand;NortheimLand;AltenburgerLandLand;OberhausenStadt;FreudenstadtLand;BambergLandLand;KarlsruheLandLand;LoerrachLand;HeilbronnStadtStadt;ReutlingenLand;ErfurtStadt
Westfalia Wärmetechnik Heinrich Schröder GmbH,"32257 Bünde, Germany",32257,52.20012793998374,8.57368924864759,800,Nordfriesland;BerlinBundesland;Schwabach;RegionHannoverLand;VogelsbergLand;NuernbergerLandLand;RastattLand;WesterwaldLand;BayreuthLandLand;Unstrut_Hainich_Land;Trier_SaarburgLand;WiesbadenLandeshauptstadt;WeimarStadt;BiberachLand;KulmbachLand
Apollo Gößnitz GmbH,"04639 Gößnitz, Germany",4639,50.87855975866452,12.426716774937557,800,AhrweilerLand;Kasseldocumenta_Stadt;MiesbachLand;Kleve;FuerstenfeldbruckLand;RavensburgLand;OrtenauLand;BerchtesgadenerLandLand;KemptenAllgaeu;SoemmerdaLand;GrafschaftBentheimLand;Hameln_PyrmontLand;Olpe;Herford;St.WendelLand
Alfred Kaut GmbH & Co. Elektrizitäts Gesellschaft,"42277 Wuppertal, Germany",42277,51.282103758388864,7.220692893147858,800,NordsachsenLand;Ostholstein;Mansfeld_SuedharzLand;ZweibrueckenStadt;StuttgartLandeshauptstadt;KarlsruheLandLand;HeidelbergStadtStadt;WesermarschLand;Main_Taunus_Land;Soltau_FallingbostelLand;GoerlitzLand;OsnabrueckLand;HeidenheimLand;MoenchengladbachStadt;Freyung_GrafenauLand
Otto Schatte GmbH,"23554 Lübeck, Germany",23554,53.883935679347715,10.674071860547306,800,EmdenStadt;LeverkusenStadt;JerichowerLandLand;NordhausenLand;Oberbergischer;Minden_Luebbecke;Unna;Waldeck_FrankenbergLand;BoeblingenLand;Rhein_Erft_;Ansbach;Merzig_WadernLand;BrandenburganderHavel;BurgenlandLand;Mainz_BingenLand
SCHRAG GmbH & CO. KG,"73061 Ebersbach an der Fils, Germany",73061,48.71097021082478,9.521930455839517,800,Main_Taunus_Land;RegionHannoverLand;Weideni.d.OPf.;OldenburgOldenburgStadt;HalleSaaleStadt;MuensterStadt;EichsfeldLand;Minden_Luebbecke;AltenkirchenWesterwald;Oberbergischer;GoslarLand;TuebingenLand;StarnbergLand;Dithmarschen;Rhein_Pfalz_Land
BLOOM ENGINEERING EUROPA GmbH,"40549 Düsseldorf, Germany",40549,51.233057256001565,6.72012990351158,800,WolfsburgStadt;EichstaettLand;Saarpfalz_Land;LudwigshafenamRheinStadt;Siegen_Wittgenstein;FrankfurtOderStadt;Main_Kinzig_Land;HagenStadt;KulmbachLand;Aschaffenburg;Ludwigslust_Parchim;Kaufbeuren;ErfurtStadt;BraunschweigStadt;KaiserslauternStadt
Dr. Kurt Korsing GmbH & Co. KG,"50739 Köln-Bilderstöckchen, Germany",50739,50.978415590141296,6.927486903193077,800,Augsburg;HeidenheimLand;HohenloheLand;LeipzigLand;SaaleLand;Ostholstein;GrafschaftBentheimLand;RegionHannoverLand;Bayreuth;SuedlicheWeinstraßeLand;HeidelbergStadtStadt;CelleLand;MiltenbergLand;Dithmarschen;Dingolfing_LandauLand
Ing. Carl Friedmann GmbH + Co. KG,"92637 Weiden, Germany",92637,49.6704287,12.166984528812986,800,HerzogtumLauenburg;Rhein_Sieg_;GifhornLand;SchwerinLandeshauptstadt;LandshutLandLand;OberhausenStadt;Rhein_Neckar_Land;KulmbachLand;OffenbachLand;SalzlandLand;Schwabach;GoerlitzLand;BadDuerkheimLand;HofLandLand;WormsStadt
Kältetechnik aircool GmbH,"81829 Munich, Germany",81829,48.132017644922065,11.677867621221704,800,Straubing_BogenLand;BadToelz_Wolfratshausen;OldenburgLand;BadKreuznachLand;RotenburgWuemmeLand;Rheinisch_Bergischer;SuedlicheWeinstraßeLand;BiberachLand;AltoettingLand;Erlangen;RostockHansestadt;Dessau_RosslauStadt;HavellandLand;BarnimLand;PotsdamStadt
SHK SYSTEM PLAN GmbH,"03044 Cottbus, Germany",3044,51.77722887218198,14.335299436424794,800,SchwerinLandeshauptstadt;Borken;BottropStadt;Darmstadt_DieburgLand;LandauinderPfalzStadt;WiesbadenLandeshauptstadt;VerdenLand;Dillingena.d.DonauLand;PotsdamStadt;Bamberg;Rhein_Pfalz_Land;Wunsiedeli.Fichtelgebirge;EbersbergLand;HeidelbergStadtStadt;BurgenlandLand
SHL LEHMANN GmbH & CO KG,"72202 Nagold, Germany",72202,48.54347865,8.71973633066466,800,HeidelbergStadtStadt;HammStadt;Herford;Rheinisch_Bergischer;WuppertalStadt;Baden_BadenStadtStadt;OstallgaeuLand;SchweinfurtLandLand;Soltau_FallingbostelLand;KyffhaeuserLand;HerzogtumLauenburg;LichtenfelsLand;LandsbergamLechLand;Straubing_BogenLand;BerchtesgadenerLandLand
A. Bernd Fronda Kälte Klima Schankanlagen und Großküchentechnik,"45659 Recklinghausen, Germany",45659,51.6022969690376,7.1901899538253895,800,FrankfurtOderStadt;RosenheimLandLand;GießenLand;Unstrut_Hainich_Land;BirkenfeldLand;LudwigsburgLand;Ostprignitz_RuppinLand;LichtenfelsLand;Erlangen;WiesbadenLandeshauptstadt;Rhein_Neuss;Baden_BadenStadtStadt;HolzmindenLand;RegionalverbandSaarbruecken;StadeLand
Abel Elektrotechnik GmbH & Co. KG,"84549 Engelsberg, Germany",84549,48.12969124999999,12.512000331248505,800,BoerdeLand;BerlinBundesland;BergstraßeLand;Dahme_SpreewaldLand;RastattLand;Kleve;BadDuerkheimLand;BautzenLand;Kaufbeuren;DachauLand;RemscheidStadt;BodenseeLand;DresdenStadt;LudwigsburgLand;Neustadta.d.Waldnaab
ABR Erdwärme GmbH,"15738 Zeuthen, Germany",15738,52.349123358244285,13.62011752324731,800,Minden_Luebbecke;Rhein_Hunsrueck_Land;WiesbadenLandeshauptstadt;Ludwigslust_Parchim;Rheinisch_Bergischer;AschaffenburgLand;BoerdeLand;Neumarkti.d.OPf.Land;Merzig_WadernLand;OsnabrueckStadt;LudwigsburgLand;ErzgebirgsLand;FrieslandLand;Main_Taunus_Land;Rhein_Neuss
Ahrens Solartechnik GmbH & Co. KG,"31675 Bückeburg, Germany",31675,52.29280015,9.030864114045734,800,DeggendorfLand;HammStadt;OberallgaeuLand;EisenachStadt;BarnimLand;Neustadta.d.Aisch_BadW.;Limburg_WeilburgLand;Weißenburg_Gunzenhausen;Rheingau_Taunus_Land;KarlsruheLandLand;Rems_Murr_Land;BadKreuznachLand;Paderborn;HildburghausenLand;Passau
Ahrensburger Zentralheizungsbau GmbH,"22926 Ahrensburg, Germany",22926,53.674296062149715,10.231113141386132,800,Darmstadt_DieburgLand;Teltow_FlaemingLand;MiltenbergLand;Rhein_Sieg_;Ansbach;Neustadta.d.Waldnaab;Rhein_Neckar_Land;Mettmann;Kleve;Warendorf;EsslingenLand;St.WendelLand;Oder_SpreeLand;Waldeck_FrankenbergLand;ReutlingenLand
aihtec SOLAR UG,"06110 Halle, Germany",6110,51.469438544819155,11.97198739660814,800,StaedteregionAachen;CoburgLandLand;Minden_Luebbecke;Main_Tauber_Land;FuerstenfeldbruckLand;Dahme_SpreewaldLand;BraunschweigStadt;Main_Kinzig_Land;Schwabach;KarlsruheLandLand;UnterallgaeuLand;BarnimLand;SuedwestpfalzLand;Cochem_ZellLand;RegionalverbandSaarbruecken
ait-deutschland GmbH,"95359 Kasendorf, Germany",95359,50.04048915,11.344080993371318,800,Main_Kinzig_Land;BremenBundesland;PassauLandLand;Wunsiedeli.Fichtelgebirge;Marburg_BiedenkopfLand;GoslarLand;LoerrachLand;SchwandorfLand;DuisburgStadt;AmmerlandLand;Vorpommern_Greifswald;BerlinBundesland;LuebeckHansestadt;Ingolstadt;OsnabrueckStadt
Alb Kältetechnik GmbH,"72336 Balingen, Germany",72336,48.265537174370785,8.862248307617705,800,Ilm_Land;BremenBundesland;EnzLand;CloppenburgLand;Rhein_Neckar_Land;TraunsteinLand;GuenzburgLand;KonstanzLand;OsnabrueckLand;BerchtesgadenerLandLand;BambergLandLand;Maerkisch_OderlandLand;Ennepe_Ruhr_;EisenachStadt;Bayreuth
ALBAN technische Anlagen GmbH,"35321 Laubach, Germany",35321,50.5347468,9.01147172266039,800,Main_Taunus_Land;Rems_Murr_Land;CloppenburgLand;Neustadta.d.Waldnaab;Potsdam_MittelmarkLand;MagdeburgLandeshauptstadt;TrierStadt;WartburgLand;AmmerlandLand;FreisingLand;Rosenheim;MuenchenLandLand;Soest;Merzig_WadernLand;SchwaebischHallLand
Alfons Weber GmbH,"40489 Düsseldorf, Germany",40489,51.316168450149505,6.7557082251316976,800,Straubing;FrankenthalPfalzStadt;MuenchenLandLand;KoblenzStadt;NordhausenLand;Bayreuth;Ingolstadt;Saale_Orla_Land;SchwandorfLand;Saarpfalz_Land;Marburg_BiedenkopfLand;Weilheim_SchongauLand;OsterholzLand;SoemmerdaLand;NienburgWeserLand
Alois Mehlhart GmbH,"83209 Prien am Chiemsee, Germany",83209,47.8554814,12.380791069659253,400,KonstanzLand;KrefeldStadt;KronachLand;KulmbachLand;KuselLand
Alois Simon GmbH,"66424 Homburg, Germany",66424,49.323684325409424,7.334715405797603,400,LandsbergamLechLand;Landshut;LeerLand;LeverkusenStadt;LichtenfelsLand
Aloys Steffes Sanitär-Installation GmbH,"53859 Niederkassel-Mondorf, Germany",53859,50.80803430735835,7.040302179608008,400,Limburg_WeilburgLand;LindauBodenseeLand;Lippe;LoerrachLand;LudwigsburgLand
Alternative Energie Mielke,"25358 Horst (Holstein), Germany",25358,53.810221578643805,9.620523350291313,400,LudwigshafenamRheinStadt;Ludwigslust_Parchim;LuebeckHansestadt;Luechow_DannenbergLand;LueneburgLand
Alternative Technik Scherf GmbH,"03229 Altdöbern, Germany",3229,51.66249615,14.029420997980782,400,MagdeburgLandeshauptstadt;MannheimUniversitaetsstadt;Marburg_BiedenkopfLand;MecklenburgischeSeen;Memmingen
Jan Anders Bad & Heizungsbau - Meisterbetrieb,"02956 Rietschen, Germany",2956,51.394180884409245,14.786110263054482,400,Merzig_WadernLand;Mettmann;MiesbachLand;MiltenbergLand;Minden_Luebbecke
Andre Weick Innovative Haus und Umwelttechnik GmbH,"69168 Wiesloch, Germany",69168,49.294623568255616,8.698198357308664,400,MoenchengladbachStadt;MuensterStadt;Neuburg_Schrobenhausen;Neumarkti.d.OPf.Land;NeumuensterStadt
Andreas Krüger GmbH,"78224 Singen, Germany",78224,47.76204189826086,8.853457189848971,400,NeunkirchenLand;Neustadta.d.Aisch_BadW.;NeuwiedLand;NienburgWeserLand;Nordfriesland
Andreas Rudolf Meisterbetrieb,"95445 Bayreuth, Germany",95445,49.95078262132679,11.558401273473525,400,NordhausenLand;Nordwestmecklenburg;NortheimLand;Oberbergischer;OberhausenStadt
Anspach Sanitärservice,"56073 Koblenz, Germany",56073,50.344407753394925,7.5611418389302525,400,OldenburgLand;Olpe;OsnabrueckLand;OsterholzLand;Ostholstein
API Energie- und Versorgungstechnik GmbH,"82166 Gräfelfing, Germany",82166,48.1221494,11.435932660256775,400,Paderborn;Passau;PeineLand;Pfaffenhofena.d.IlmLand;PforzheimStadtStadt
APPEL GmbH,"69181 Leimen, Germany",69181,49.34496659356642,8.681438800283718,400,Pinneberg;PirmasensStadt;Ploen;PotsdamStadt;RastattLand
Aqua-Solar,"64385 Reichelsheim, Germany",64385,49.70043805,8.84782296118301,400,RavensburgLand;Recklinghausen;RegenLand;Regensburg;RegionHannoverLand
Aust + Hartmann GmbH & Co.KG,"23996 Niendorf, Germany",23996,53.773940703372325,11.463455579976376,400,RegionalverbandSaarbruecken;Rems_Murr_Land;RemscheidStadt;Rendsburg_Eckernfoerde;ReutlingenLand
Autenrieth + Wehner GmbH,"36037 Fulda, Germany",36037,50.55347859515582,9.679081172366187,400,Rhein_Erft_;Rhein_Neuss;Rhein_Sieg_;Rheingau_Taunus_Land;Rosenheim
B. Hahn,"95119 Naila OT Marlesreuth, Germany",95119,50.32832285,11.69696878699962,400,Rostock;RotenburgWuemmeLand;RothLand;RottweilLand;SaaleLand
bad&heizung Griesche GmbH,"01558 Großenhain, Germany",1558,51.2901101,13.525065169942806,400,SaarlouisLand;SalzgitterStadt;SchaumburgLand;Schmalkalden_Meiningen;Schwabach
Baldur Weid,"56479 Rehe/Westerwald, Germany",56479,50.61558265664086,8.044241900935656,400,SchwandorfLand;Schweinfurt;Segeberg;Siegen_Wittgenstein;SigmaringenLand
Beck GmbH & Co KG,"40721 Hilden, Germany",40721,51.16619285,6.914028880079641,400,SoemmerdaLand;Soest;SolingenStadt;Soltau_FallingbostelLand;SonnebergLand
Becker GmbH,"67307 Göllheim, Germany",67307,49.59193913855156,8.048817187532437,400,SpeyerStadt;StadeLand;StaedteregionAachen;StarnbergLand;Steinburg
Beckers Regeltechnik GmbH,"47506 Neukirchen-Vluyn, Germany",47506,51.43527775,6.5506149917785335,400,Steinfurt;StendalLand;Straubing;StuttgartLandeshauptstadt;SuhlStadt
Beckmann GmbH,"24941 Flensburg, Germany",24941,54.77491915,9.387348411186212,400,Teltow_FlaemingLand;TirschenreuthLand;TraunsteinLand;TrierStadt;TuebingenLand
Berna Kühlanlagen GmbH,"08058 Zwickau, Germany",8058,50.75047053591186,12.482388505218001,400,TuttlingenLand;UelzenLand;Unna;VechtaLand;VerdenLand
Bernd Elsner Sanitär & Heizungstechnik,"14774 Brandenburg an der Havel, Germany",14774,52.3974682685955,12.41637681802356,400,Viersen;Vorpommern_Greifswald;Waldeck_FrankenbergLand;Warendorf;WartburgLand
Bernd Krämer Heizung-Elektro-Sanitär,"09116 Chemnitz, Germany",9116,50.82538849213916,12.874168235565287,400,Weilheim_SchongauLand;WeimarStadt;Weißenburg_Gunzenhausen;Wesel;WesermarschLand
Bernhard Roll GmbH,"14167 Berlin, Germany",14167,52.42157845,13.27883356116847,400,WesterwaldLand;WilhelmshavenStadt;WittenbergLand;WittmundLand;WolfenbuettelLand
Bernhard Werner GmbH,"42327 Wuppertal, Germany",42327,51.242882880712784,7.074620620216511,400,WolfsburgStadt;Wunsiedeli.Fichtelgebirge;WuppertalStadt;ZweibrueckenStadt
Berthold Herzog,"63814 Mainaschaff, Germany",63814,49.9998872,9.086395035109847,400,AhrweilerLand;Aichach_FriedbergLand;Alb_Donau_Land;AltenburgerLandLand;AltenkirchenWesterwald
BERUS Energietechnik e.K.,"88069 Tettnang, Germany",88069,47.6545925,9.604272433657734,400,AhrweilerLand;Aichach_FriedbergLand;Alb_Donau_Land;AltoettingLand;Alzey_WormsLand
BEY ELMAR GmbH & CO. KG,"64319 Pfungstadt, Germany",64319,49.8024721,8.593209651944612,400,AhrweilerLand;Aichach_FriedbergLand;Alb_Donau_Land;AltenburgerLandLand;AltenkirchenWesterwald
BIERTHER HEIZUNGSANLAGEN GmbH,"69126 Heidelberg, Germany",69126,49.376832133155354,8.690933393159426,400,AhrweilerLand;Aichach_FriedbergLand;Alb_Donau_Land;AltenkirchenWesterwald;Alzey_WormsLand
Blaffert Heizsysteme GmbH,"39524 Schönhausen, Germany",39524,52.66909789367354,12.06694595277346,400,AltenburgerLandLand;AltmarkSalzwedelLand;AmmerlandLand;Anhalt_BitterfeldLand;BarnimLand
Blatzheim & Sohn GmbH,"52372 Kreuzau, Germany",52372,50.7383479,6.479966746998315,400,AhrweilerLand;AltenkirchenWesterwald;Alzey_WormsLand;AmmerlandLand;Aschaffenburg
"boden & grundwasser, Dr. Jörg Danzer Dipl. Geoökologe","87527 Sonthofen, Germany",87527,47.5055914,10.269482173899464,400,Aichach_FriedbergLand;Alb_Donau_Land;AltoettingLand;Alzey_WormsLand;Amberg
Böhm GmbH,"04416 Markkleeberg, Germany",4416,51.26845875,12.396545220727784,400,AltenburgerLandLand;AltmarkSalzwedelLand;Amberg;Anhalt_BitterfeldLand;Ansbach
Börner + Co KG,"85053 Ingolstadt, Germany",85053,48.74609894429576,11.4513175550012,400,AhrweilerLand;Aichach_FriedbergLand;Alb_Donau_Land;AltenburgerLandLand;AltoettingLand
BRENNER GmbH - Beste Heizungs- & Elektro-Technologie,"71229 Leonberg - Höfingen, Germany",71229,48.78961225,9.000822581694354,400,AhrweilerLand;Aichach_FriedbergLand;Alb_Donau_Land;AltenkirchenWesterwald;AltoettingLand
Bruch Kälte und Klimatechnik,"42369 Wuppertal, Germany",42369,51.22652635526601,7.201824049011347,400,AhrweilerLand;AltenkirchenWesterwald;AltmarkSalzwedelLand;Alzey_WormsLand;AmmerlandLand
Budde GmbH und Co. KG,"30974 Wennigsen (Deister), Germany",30974,52.270714487314244,9.584112049333061,400,AhrweilerLand;AltenburgerLandLand;AltenkirchenWesterwald;AltmarkSalzwedelLand;AmmerlandLand
Bühr Lufttechnik GmbH,"70839 Gerlingen, Germany",70839,48.79815182162385,9.064921871079617,400,AhrweilerLand;Aichach_FriedbergLand;Alb_Donau_Land;AltenkirchenWesterwald;AltoettingLand
BURY Haustechnik GmbH,"79241 Ihringen, Germany",79241,48.04543276753025,7.655091221980764,400,AhrweilerLand;Aichach_FriedbergLand;Alb_Donau_Land;AltenkirchenWesterwald;Alzey_WormsLand
Butscher GmbH,"87471 Durach, Germany",87471,47.69649335,10.366545555635087,400,AhrweilerLand;Aichach_FriedbergLand;Alb_Donau_Land;AltoettingLand;Alzey_WormsLand
caldoa GmbH,"88046 Friedrichshafen, Germany",88046,47.65969015,9.50416034702076,400,AhrweilerLand;Aichach_FriedbergLand;Alb_Donau_Land;AltoettingLand;Alzey_WormsLand
Christoph Rechkemmer GmbH,"66292 Riegelsberg, Germany",66292,49.30878835158418,6.935701052781655,400,AhrweilerLand;Aichach_FriedbergLand;Alb_Donau_Land;AltenkirchenWesterwald;Alzey_WormsLand
Claus Grammerstorf Inh. Peter Marquardt e.K.,"23669 Timmendorfer Strand, Germany",23669,53.99101983547429,10.799882253241307,400,AltmarkSalzwedelLand;AmmerlandLand;AurichLand;BarnimLand;BielefeldStadt
CLIVENT Umwelttechnik,"78166 Donaueschingen, Germany",78166,47.94686125,8.530789753575341,200,Baden_BadenStadtStadt;BiberachLand;BirkenfeldLand;BoeblingenLand
ColdTec Kälte-Klima-Wärmepumpentechnik GmbH,"32602 Vlotho, Germany",32602,52.15912859988332,8.849102153609751,200,BielefeldStadt;BochumStadt;BottropStadt;BraunschweigStadt;BremenBundesland
Cooljoy GmbH & Co. KG,"51399 Burscheid, Germany",51399,51.09124785,7.11906295083898,200,AhrweilerLand;AltenkirchenWesterwald;Bernkastel_WittlichLand;BielefeldStadt;BochumStadt
COOLTHERM Kälteanlagen und Wärmepumpen GmbH,"63755 Alzenau, Germany",63755,50.08377305000001,9.07302251363447,200,AhrweilerLand;AltenkirchenWesterwald;Alzey_WormsLand;Aschaffenburg;BadDuerkheimLand
Cramer Klimatechnik Inh. Dipl.-Ing. Heinz Herbert ScheiffarthHeinz-Herbert Scheiffarth,"42107 Wuppertal, Germany",42107,51.26420507080971,7.1543206181148316,200,AltenkirchenWesterwald;Bernkastel_WittlichLand;BielefeldStadt;BochumStadt;BonnStadt
Cube Ingenieurunion GmbH,"67549 Worms, Germany",67549,49.63883021667088,8.336991899502399,200,AhrweilerLand;AltenkirchenWesterwald;Alzey_WormsLand;Aschaffenburg;BadDuerkheimLand
"Dages, Huber & Schildbach OHG","87675 Stötten a. Auerberg, Germany",87675,47.74177589999999,10.70083128089979,200,Aichach_FriedbergLand;Alb_Donau_Land;Augsburg;BadToelz_Wolfratshausen;BergstraßeLand
Daschner GmbH,"47169 Duisburg, Germany",47169,51.51206544329934,6.7614459075148305,200,AltenkirchenWesterwald;BielefeldStadt;BochumStadt;BonnStadt;Borken
DIAMANT Heiz- und Klimasysteme GmbH,"73635 Rudersberg, Germany",73635,48.88106605,9.53657935494483,200,Aichach_FriedbergLand;Alb_Donau_Land;Alzey_WormsLand;Ansbach;Aschaffenburg
Dipl.-Ing. (FH) Ingo Jürgena,"26639 Wiesmoor, Germany",26639,53.41439575,7.725996287431335,200,AmmerlandLand;AurichLand;BremenBundesland
Dipl.-Ing. EDUARD JORDAN Haustechnik GmbH,"18211 Bargeshagen, Germany",18211,54.13205731766789,11.948914614596285,200,Segeberg;Ludwigslust_Parchim;Luechow_DannenbergLand;Vorpommern_Ruegen;Ostholstein
Dipl.-Ing. Frank Günther e.K.,"21337 Lüneburg, Germany",21337,53.24793398061731,10.44020796972433,200,BraunschweigStadt;BremenBundesland
Dipl.-Ing.(FH) Karl Mayer GmbH,"54634 Bitburg, Germany",54634,49.968953218971436,6.528036193719653,200,AhrweilerLand;AltenkirchenWesterwald;Alzey_WormsLand;BadDuerkheimLand;Bernkastel_WittlichLand
Dirk Schmitz Heizungsbau & Sanitär,"53474 Bad Neuenahr-Ahrweiler, Germany",53474,50.54152349585169,7.120312435242091,200,AhrweilerLand;AltenkirchenWesterwald;Alzey_WormsLand;BadDuerkheimLand;Bernkastel_WittlichLand
Distelmaier GmbH,"22761 Hamburg, Germany",22761,53.56542158356,9.914004926078034,200,AmmerlandLand;BremenBundesland
Dr. Stadtbäumer Baugrunduntersuchung GmbH,"85609 Aschheim b. München, Germany",85609,48.192658,11.71421219127192,200,Aichach_FriedbergLand;Alb_Donau_Land;AltoettingLand;Amberg;Ansbach
DUDDA Energiesysteme Gmbh,"18258 Schwaan, Germany",18258,53.937002333328046,12.104252686969234,200,Vorpommern_Greifswald;Rostock;HerzogtumLauenburg
Dührkopp Haustechnik GmbH Co. KG,"14712 Rathenow, Germany",14712,52.611308221476,12.341515033460677,200,AltmarkSalzwedelLand;Anhalt_BitterfeldLand;BarnimLand;BrandenburganderHavel;BraunschweigStadt
Ebert - Bau GmbH Neubau - Umbau - Sanierung,"17033 Neubrandenburg, Germany",17033,53.5452587986691,13.25045859027817,200,BarnimLand;BrandenburganderHavel
Eichenauer Kälte- und Klimatechnik GmbH & Co. KG,"36367 Wartenberg - Angersbach, Germany",36367,50.62387105,9.45089905063308,200,AhrweilerLand;AltenkirchenWesterwald;Alzey_WormsLand;Aschaffenburg;BadKissingenLand
EISEN FISCHER GmbH,"86720 Nördlingen, Germany",86720,48.8586179,10.495341998758175,200,Aichach_FriedbergLand;Alb_Donau_Land;Amberg;Ansbach;Augsburg
ELBRA Elektrotechnik Bratschke GmbH,"42551 Velbert, Germany",42551,51.34330675251444,7.050640855991928,200,AltenkirchenWesterwald;Bernkastel_WittlichLand;BielefeldStadt;BochumStadt;BonnStadt
Elektro Fischer GmbH,"94152 Neuhaus – Reding, Germany",94152,48.4529484,13.410533506243578,200,AltoettingLand;BadToelz_Wolfratshausen;BerchtesgadenerLandLand;BergstraßeLand
Elektro Guggenmos GmbH & Co. KG,"87742 Dirlewang, Germany",87742,48.00695217922661,10.506959789663536,200,Aichach_FriedbergLand;Alb_Donau_Land;AltoettingLand;Augsburg;BadToelz_Wolfratshausen
Elektro Halbach Heinz Halbach GmbH & Co. KG,"42369 Wuppertal, Germany",42369,51.22652635526601,7.201824049011347,200,Bernkastel_WittlichLand;BielefeldStadt;BochumStadt;BonnStadt;Borken
Elektro Haupenthal,"55776 Rohrbach, Germany",55776,49.584776751571425,7.242798585581299,200,AhrweilerLand;AltenkirchenWesterwald;Alzey_WormsLand;Aschaffenburg;BadDuerkheimLand
Elektro Jost GmbH,"45289 Essen-Burgaltendorf, Germany",45289,51.416164930314636,7.111311750400403,200,AltenkirchenWesterwald;BielefeldStadt;BochumStadt;BonnStadt;Borken
Elektro Lübke KG,"24103 Kiel, Germany",24103,54.32284378477549,10.131450585349253,200,Soltau_FallingbostelLand
ELEKTRO Luckow & Söhne GmbH,"40721 Hilden, Germany",40721,51.16619285,6.914028880079641,200,AltenkirchenWesterwald;Bernkastel_WittlichLand;BielefeldStadt;BochumStadt;BonnStadt
Elektro Riedel Inh. Frank Riedel,"30916 Isernhagen, Germany",30916,52.45406536126935,9.85708924550884,200,AltmarkSalzwedelLand;AmmerlandLand;BielefeldStadt;BraunschweigStadt;BremenBundesland
Elektro Roßwein GmbH,"04741 Roßwein, Germany",4741,51.0801062,13.186804630726021,200,AltenburgerLandLand;AltmarkSalzwedelLand;Anhalt_BitterfeldLand;BautzenLand
ELEKTRO SCHNICKMANN GmbH,"51789 Lindlar-Hartegasse, Germany",51789,51.0233447902725,7.373047948725837,200,Mettmann;MuensterStadt;WittenbergLand;AltenkirchenWesterwald;DuisburgStadt
Elektro Zech GmbH,"87666 Pforzen, Germany",87666,47.9357322,10.611829457029227,200,LindauBodenseeLand;LandshutLandLand;BodenseeLand;SaaleLand;StuttgartLandeshauptstadt
Elektro-Beck,"73466 Lauchheim, Germany",73466,48.87152009637114,10.249688380464727,200,SigmaringenLand;Ingolstadt;RastattLand;Donau_RiesLand;GuenzburgLand
Elektro-Brezing,"72224 Ebhausen, Germany",72224,48.60857125,8.670617045299148,200,BadDuerkheimLand;WormsStadt;BirkenfeldLand;Memmingen;KarlsruheStadtStadt
Elektro-Horst GmbH,"06667 Tagewerben, Germany",6667,51.19534087625667,11.968004749302304,200,Bayreuth;SoemmerdaLand;NordsachsenLand;Elbe_ElsterLand;SaechsischeSchweiz_Osterz
Elektrotechnik Schenkendorf GmbH,"42897 Remscheid, Germany",42897,51.18750523422175,7.264249471013954,200,EssenStadt;Soest;Rhein_Neuss;OsnabrueckLand;Heinsberg
Elmar Schmid GmbH,"87488 Betzigau, Germany",87488,47.7278131,10.41126141941994,200,FuerstenfeldbruckLand;MuenchenLandLand;EsslingenLand;LandsbergamLechLand
Engelmann Installation,"39576 Stendal - OT Groß Schwechten, Germany",39576,52.60554850972736,11.847680815150015,200,BrandenburganderHavel;HarzLand;RegionHannoverLand;Maerkisch_OderlandLand;Ostprignitz_RuppinLand
ENGIE Refrigeration GmbH,"88131 Lindau, Germany",88131,47.57286685,9.686940863251923,200,Rottal_InnLand;TuttlingenLand;EmmendingenLand;BergstraßeLand;KemptenAllgaeu
Enneper und Schmermbeck KG,"58511 Lüdenscheid, Germany",58511,51.21811915000001,7.651146488671737,200,MuelheimanderRuhrStadt;Kleve;Coesfeld;MainzStadt;WartburgLand
Enspa-Energiesparsysteme,"63683 Ortenberg, Germany",63683,50.35660375000001,9.088058565190185,200,AschaffenburgLand;Main_Kinzig_Land;NeustadtanderWeinstraße;FrankenthalPfalzStadt;Oberbergischer
EnTech GmbH,"77815 Buhl, Germany",77815,48.69775615455515,8.135489720000837,200,Neustadta.d.Waldnaab;Alzey_WormsLand;Rheingau_Taunus_Land;FreudenstadtLand;MannheimUniversitaetsstadt
EPROPLAN GmbH Beratende Ingenieure,"70597 Stuttgart, Germany",70597,48.74470654085455,9.169232271388557,200,HeilbronnStadtStadt;BodenseeLand;WuerzburgLandLand;Rems_Murr_Land;Neustadta.d.Aisch_BadW.
Erhard Müller GmbH,"37181 Hardegsen, Germany",37181,51.65458745,9.825495731389848,200,WolfsburgStadt;WolfenbuettelLand;HolzmindenLand
Erich Kuhn GmbH,"22179 Hamburg, Germany",22179,53.606202825035616,10.081075494384924,200,LueneburgLand;CloppenburgLand
Ernst Schenk & Sohn GmbH Heizung und Sanitär,"47057 Duisburg, Germany",47057,51.42467784308181,6.788731937895683,200,OsnabrueckLand;MuensterStadt;SolingenStadt;Rhein_Sieg_;Mettmann
Erwin Merk GmbH,"89264 Weißenhorn, Germany",89264,48.3020171,10.177888700200981,200,HeilbronnStadtStadt;Rems_Murr_Land;GuenzburgLand;KarlsruheLandLand;HarburgLand
ETG Wiedholz Elektrotechnischer Fachgroßhandel,"86462 Langweid/Lech, Germany",86462,48.48088945,10.826741557738764,200,RegensburgLandLand;Memmingen;Ansbach;RosenheimLandLand;KitzingenLand
Eugen Bosch GmbH & Co. KG,"50823 Cologne, Germany",50823,50.94975484721943,6.923365932724571,200,Siegen_Wittgenstein;Oberbergischer;Soest;WiesbadenLandeshauptstadt;Coesfeld
Ewald Büttner GmbH,"63856 Bessenbach, Germany",63856,49.9660696,9.252114800788133,200,Neckar_Odenwald_;OffenbachamMainStadt;NeustadtanderWeinstraße;MainzStadt;ForchheimLand
F.Grassmugg Kälte-Klima-Technik,"71679 Asperg, Germany",71679,48.9046078859641,9.138954993652023,200,HohenloheLand;BadDuerkheimLand;SchweinfurtLandLand;Rhoen_GrabfeldLand;OdenwaldLand
F.O. Henneberg GmbH,"20354 Hamburg, Germany",20354,53.55587332583894,9.990383920721008,200,AmmerlandLand;VechtaLand
Faust GmbH,"56070 Koblenz, Germany",56070,50.374941338367435,7.588230976525044,200,Rhein_Sieg_;Heinsberg;EssenStadt;MuelheimanderRuhrStadt;RemscheidStadt
Fedder GmbH,"41462 Neuss, Germany",41462,51.21565543410996,6.666674339199691,200,BottropStadt
Fiedler Service GmbH,"13509 Berlin, Germany",13509,52.59071885,13.298214993776467,200,Oder_SpreeLand;Elbe_ElsterLand;MagdeburgLandeshauptstadt;LeipzigLand;AltmarkSalzwedelLand
Fiehl & Kersken GmbH,"50389 Wesseling, Germany",50389,50.81590634608205,6.977998337090839,200,HerneStadt;FrankenthalPfalzStadt;Coesfeld;HammStadt;Recklinghausen
Firma Kölling GmbH,"01561 Ebersbach OT Bieberach, Germany",1561,51.28951915,13.711979771021142,200,HavellandLand;ChemnitzStadt;Potsdam_MittelmarkLand
Fischer Elektrotechnik GmbH,"89584 Ehingen-Dächingen, Germany",89584,48.28566035901308,9.716187626552221,200,BoeblingenLand;OstallgaeuLand;Ingolstadt;StuttgartLandeshauptstadt;Schwarzwald_Baar_Land
Fischer GbR Bad & Heiztechnik,"59069 Hamm, Germany",59069,51.62334875000001,7.868872314064967,200,Maerkischer;DuesseldorfStadt;Herford;WartburgLand;Wesel
FMH Bau-Meister GmbH & Co KG,"52070 Aachen, Germany",52070,50.783258450583716,6.098154874177514,200,MoenchengladbachStadt;Olpe;Rhein_Erft_;Heinsberg;Siegen_Wittgenstein
Francois Fiedler GmbH,"14089 Berlin-Kladow, Germany",14089,52.47087255,13.151527738415707,200,Spree_NeißeLand
Frank Widdel Haustechnik,"59063 Hamm, Germany",59063,51.67203085,7.837455419292951,200,BochumStadt;Marburg_BiedenkopfLand;Borken;OsnabrueckStadt;DiepholzLand
Franz Lanzinger GmbH,"86931 Prittriching, Germany",86931,48.19888325,10.926865826408914,200,Augsburg;Neu_UlmLand;Weideni.d.OPf.;Neumarkti.d.OPf.Land;FreisingLand
FRIELING FRITZ GmbH,"49393 Lohne (Oldenburg), Germany",49393,52.66118125,8.228908928665907,200,Guetersloh;StadeLand;Hameln_PyrmontLand;Recklinghausen;WuppertalStadt
Fritsch GmbH Heizungen und Bäder,"76437 Rastatt, Germany",76437,48.86651935,8.18452642549805,200,SuedwestpfalzLand;Neu_UlmLand;Aschaffenburg;Rhein_Lahn_Land;WiesbadenLandeshauptstadt
Fritz Laxganger GmbH,"83119 Obing, Germany",83119,48.01504925,12.393458950726489,200,SchwandorfLand;OstallgaeuLand;Neuburg_Schrobenhausen;Passau;ChamLand
Fuchs Heizung + Haustechnik GmbH,"53840 Troisdorf, Germany",53840,50.81089034725922,7.162176854136268,200,Rhein_Lahn_Land;BottropStadt;WittenbergLand;Rhein_Erft_;OffenbachLand
Fuhrer Kälte & Klimatechnik,"72108 Rottenburg-Oberndorf, Germany",72108,48.46967965,8.934589874858336,200,KarlsruheStadtStadt;Wuerzburg;Dingolfing_LandauLand;MiltenbergLand;TuttlingenLand
G.U.T. Gebäude- und Umwelttechnik GmbH,"26180 Rastede, Germany",26180,53.24468722976924,8.203744334867308,200,CuxhavenLand;EmslandLand;RotenburgWuemmeLand;BremenBundesland;CloppenburgLand
Gabriel GmbH Heizung Sonne Bad,"88371 Boos, Germany",88371,47.9693331,9.5924291175474,200,KarlsruheLandLand;Rottal_InnLand;Memmingen;StuttgartLandeshauptstadt
Garbe Elektro- und Solartechnik GmbH,"47589 Uedem, Germany",47589,51.6755786,6.2936017234857795,200,Oberbergischer;OsnabrueckLand;WuppertalStadt;DuesseldorfStadt
Gellert & Meitzner GmbH,"03172 Schenkendöbern, Germany",3172,51.948764700000005,14.624074912977393,200,Spree_NeißeLand;BautzenLand
Gemeinhardt AG,"95145 Oberkotzau, Germany",95145,50.2573776,11.925640376067092,200,FuerthLandLand;SaechsischeSchweiz_Osterz;KitzingenLand;Rhoen_GrabfeldLand;ChamLand
genotec GmbH und Co. KG,"52538 Gangelt, Germany",52538,51.00737995,5.984794334299872,200,Rhein_Neuss;LeverkusenStadt;DuesseldorfStadt;DuisburgStadt;Maerkischer
GeoClimaDesign AG,"15517 Fürstenwalde / Spree, Germany",15517,52.37474285,14.06711939734578,200,Teltow_FlaemingLand;HarzLand
Georg Bergsteiner GmbH,"85077 Manching-Oberstimm, Germany",85077,48.71658625,11.490985645643756,200,KulmbachLand;BodenseeLand;Donau_RiesLand;Ingolstadt;FuerthLandLand
GeoSolar Energietechnik GmbH,"15370 Fredersdorf, Germany",15370,52.5189856,13.779896376943707,200,AltmarkSalzwedelLand;Spree_NeißeLand;Potsdam_MittelmarkLand
Gerd Albert GmbH,"66115 Saarbrücken, Germany",66115,49.24500144594089,6.949541743921842,200,Main_Kinzig_Land;Neustadta.d.Aisch_BadW.;LudwigshafenamRheinStadt;Trier_SaarburgLand;EifelBitburg_PruemLand
GIB Gewerbe-und Industriebau GmbH,"04720 Döbeln, Germany",4720,51.1432426,13.12959985742949,200,Wunsiedeli.Fichtelgebirge;Hof;WeimarerLandLand
Graf GmbH,"86381 Krumbach/Niederraunau, Germany",86381,48.243257345440114,10.369003916739796,200,KemptenAllgaeu;TuttlingenLand;Memmingen;EbersbergLand;AugsburgLandLand
Graf Haustechnik GmbH,"92421 Schwandorf, Germany",92421,49.3153268,12.065086700213325,200,KulmbachLand;WuerzburgLandLand;DachauLand;Hof;CoburgLandLand
Grube's Zentralheizungsbau- und Haustechnik Dipl.-Ing. Alexander Ebel GmbH,"22145 Hamburg, Germany",22145,53.62723046372818,10.166451683328038,200,LueneburgLand;OldenburgLand;RotenburgWuemmeLand;Schleswig_Flensburg
Günter Weller GmbH,"74369 Löchgau, Germany",74369,49.002363218167886,9.108517853121601,200,Weißenburg_Gunzenhausen;LandauinderPfalzStadt;Memmingen;Rhein_Hunsrueck_Land;HohenloheLand
Günther GmbH Heizung Sanitär Bauklempnerei,"45139 Essen, Germany",45139,51.45863688013088,7.040967059884848,200,EmslandLand;BochumStadt;KoelnStadt;RemscheidStadt;LeverkusenStadt
Guske Elektro GmbH & Co. KG,"39606 Flessau, Germany",39606,52.790568208045435,11.730477611087315,200,Teltow_FlaemingLand;PeineLand;BoerdeLand;Spree_NeißeLand;BrandenburganderHavel
GYRO BAUTECHNIK GmbH,"45356 Essen, Germany",45356,51.48431543195153,6.974798271797249,200,Lippe;HerneStadt;DuesseldorfStadt;MoenchengladbachStadt;Paderborn
h e i n e n GmbH,"50825 Cologne, Germany",50825,50.95687355751755,6.914278482732996,200,GelsenkirchenStadt;Coesfeld;Dueren;SolingenStadt;Marburg_BiedenkopfLand
H. Jürgens KG,"26629 Großefehn, Germany",26629,53.39700745,7.598084407266338,200,Minden_Luebbecke
H. Reuter GmbH,"45127 Essen, Germany",45127,51.45692010953957,7.0109605144224245,200,DuesseldorfStadt;Unna;WittenbergLand;Guetersloh;Waldeck_FrankenbergLand
H. Timm GmbH,"31515 Wunstorf, Germany",31515,52.43251098172597,9.404135345901583,200,BraunschweigStadt;PeineLand;HolzmindenLand;OsnabrueckStadt;SalzgitterStadt
H.-D. Ruß GmbH Energietechnik,"65201 Wiesbaden, Germany",65201,50.05297929511993,8.184961236413107,150,WetterauLand;KoblenzStadt;EifelBitburg_PruemLand;Limburg_WeilburgLand;AschaffenburgLand
Haas + Mandau GmbH,"79541 Lörrach, Germany",79541,47.64014375,7.690329139447585,150,Breisgau_Hochschwarzwald
Haberland Heizung-Sanitär GmbH,"09390 Gornsdorf, Germany",9390,50.7085981,12.884694129703298,150,MittelsachsenLand;WeimarerLandLand;ZwickauLand;Groß_GerauLand
Hafner-Muschler Kälte- und Klimatechnik GmbH & Co KG,"72336 Balingen, Germany",72336,48.265537174370785,8.862248307617705,150,FreudenstadtLand;UlmUniversitaetsstadtStadt;KarlsruheStadtStadt;Schwarzwald_Baar_Land
Handelshof Bautzen GmbH,"02625 Bautzen, Germany",2625,51.1812160437654,14.430411527013819,150,CottbusStadt
Handrick & Schumann GmbH,"09337 Callenberg, Germany",9337,50.81135948240723,12.693843979859496,150,KyffhaeuserLand;DresdenStadt;LeipzigLand;JenaStadt
"HANS BÖHM Sanitär-, Solar- und Heizungstechnik","42657 Solingen, Germany",42657,51.14989673813634,7.0666252556402815,150,Kleve;HagenStadt;Recklinghausen;Siegen_Wittgenstein;Olpe
Hans Meirandres GmbH,"83022 Rosenheim, Germany",83022,47.85588381173346,12.127475219893961,150,FreisingLand;Aichach_FriedbergLand;BerchtesgadenerLandLand;Nuernberg
Hans Schramm GmbH & Co. KG,"80337 Munich, Germany",80337,48.127235419309905,11.557971683374946,150,TraunsteinLand;RegensburgLandLand;SaaleLand
Hans und Fred Brandstetter,"72622 Nürtingen, Germany",72622,48.61646925,9.352172477509347,150,Rhein_Neckar_Land;RottweilLand;LandauinderPfalzStadt
Hans Zacher GmbH - Zacher Welten,"55543 Bad Kreuznach, Germany",55543,49.83861100243044,7.865336376052836,150,OffenbachLand;Neustadta.d.Aisch_BadW.;NeunkirchenLand;LudwigshafenamRheinStadt;HeidelbergStadtStadt
Hans-Peter Stritt,"78628 Rottweil, Germany",78628,48.17000845,8.657361158909007,150,RottweilLand;GoeppingenLand
Harald Schütz Heizungsbau & Sanitär GmbH,"97355 Kleinlangheim, Germany",97355,49.75532955,10.34332367108848,150,Bayreuth;KulmbachLand;WetterauLand;SchweinfurtLandLand;Fuerth
Harry Schieck GmbH,"09130 Chemnitz, Germany",9130,50.83674533062659,12.946537435216985,150,MittelsachsenLand;ZwickauLand
Haubrich GmbH,"46045 Oberhausen, Germany",46045,51.46650437671099,6.858076538889388,150,Hochsauerland;Kleve;Warendorf;Rhein_Erft_;LeverkusenStadt
Hausmann GmbH,"26689 Apen, Germany",26689,53.2103818,7.778254061281962,150,OldenburgLand;RotenburgWuemmeLand
Hausmann Haustechnik GmbH & Co. KG,"91154 Roth, Germany",91154,49.23688415,11.118101625557133,150,Fuerth;ForchheimLand;KulmbachLand;Muehldorfa.InnLand
Haustechnik Hart GmbH & CO. KG,"97222 Rimpar, Germany",97222,49.890986299999994,9.956505744419953,150,Main_Kinzig_Land;SchweinfurtLandLand;FrankfurtOderStadt;Main_SpessartLand
Haustechnik Kröber,"56244 Schenkelberg, Germany",56244,50.54272819564337,7.795634866486705,150,Rhein_Hunsrueck_Land;GießenLand;Cochem_ZellLand;Rhein_Sieg_
Haustechnik Neuroth GmbH,"58730 Fröndenberg-Dellwig, Germany",58730,51.4982107,7.771055687019937,150,AltenkirchenWesterwald;BonnStadt;Hersfeld_RotenburgLand;BielefeldStadt;WartburgLand
Haustechnik Scherer GmbH,"66128 Saarbrücken, Germany",66128,49.23570426713049,6.916979520267942,150,Bernkastel_WittlichLand;Merzig_WadernLand;Saarpfalz_Land;ZweibrueckenStadt;KuselLand
Haustechnik Team GmbH,"01324 Dresden, Germany",1324,51.06087330513052,13.841753036483667,150,Groß_GerauLand;ZwickauLand
Haustechnik Thallwitz GmbH,"04808 Thallwitz, Germany",4808,51.3843451,12.80659762365498,150,AltenburgerLandLand;HalleSaaleStadt
Haustechnik Voßwinkel GmbH,"51515 Kürten, Germany",51515,51.03651495,7.253692842909089,150,MuensterStadt;Soest;WittenbergLand
Haustechnik-Feldmann,"31812 Bad Pyrmont, Germany",31812,51.9660263,9.309002091493305,150,NordhausenLand;WolfenbuettelLand;RegionHannoverLand
Heimö L. Möbius & Co. GmbH,"06886 Wittenberg, Germany",6886,51.87596541916008,12.632451301792868,150,Teltow_FlaemingLand
Heine GmbH & Co. KG - Heizung - Sanitär - Klima,"32278 Kirchlengern, Germany",32278,52.21778415,8.652256667496621,150,DiepholzLand;BielefeldStadt;OsnabrueckLand;Warendorf;HolzmindenLand
Heinz Burkhardt GmbH & Co. KG,"75389 Neuweiler, Germany",75389,48.67144245,8.609554538138532,150,NeustadtanderWeinstraße;OrtenauLand;TuttlingenLand
Heinz Zoch GmbH,"27751 Delmenhorst, Germany",27751,53.06799295,8.673102888934274,150,WilhelmshavenStadt;AmmerlandLand
Heinz-Jürgen Schröter GmbH,"01796 Pirna, Germany",1796,50.94704085,13.950557187173894,150,SaechsischeSchweiz_Osterz
Heizen for You VOGEL GmbH - HEIZUNGEN + BÄDER,"99438 Bad Berka, Germany",99438,50.89924634545694,11.266938632485221,150,ErfurtStadt
Heiztechnik Mengel,"64401 Groß-Bieberau, Germany",64401,49.78573040000001,8.815546593986621,150,AhrweilerLand;GießenLand;Limburg_WeilburgLand;HohenloheLand;MannheimUniversitaetsstadt
Heizung & Sanitär Achim Hambücken,"50859 Köln Lövenich, Germany",50859,50.954394861787776,6.831075807458898,150,Rhein_Neuss;MuelheimanderRuhrStadt;Dueren;NeuwiedLand;DuisburgStadt
Heizung Notdienst Berlin,"12161 Berlin, Germany",12161,52.47067685,13.326061823459206,150,BerlinBundesland;SalzlandLand
Heizung-Sanitär-Lüftung GmbH,"45884 Gelsenkirchen, Germany",45884,51.491782395705464,7.0844184735310005,150,BochumStadt;Wesel
Hengmith Kälte- Klima- Technik GmbH,"73095 Albershausen, Germany",73095,48.69391116679419,9.56289519861636,150,HohenloheLand;LudwigsburgLand
HERCO Kühltechnik Hermanns u. Co. GmbH,"46485 Wesel, Germany",46485,51.665973765835005,6.644380459407362,150,DortmundStadt;KrefeldStadt;Ennepe_Ruhr_
HERKT GmbH HEIZUNG SANITAER,"03042 Cottbus, Germany",3042,51.75595702317929,14.362796708649347,150,DresdenStadt
Hermann Schmitt GmbH,"66679 Losheim-Rimlingen, Germany",66679,49.50557638701636,6.738577974563169,150,Merzig_WadernLand;SuedwestpfalzLand
"Hermann-Josef Cleve, Sanitär- und Heizungstechnik e.K. - Inh. Michael Cleve","41462 Neuss, Germany",41462,51.21565543410996,6.666674339199691,150,Viersen;Unna;DortmundStadt;Coesfeld;DuisburgStadt
Hess Kälte & Klimatechnik GmbH,"83098 Brannenburg, Germany",83098,47.7292573,12.0626848729504,150,Pfaffenhofena.d.IlmLand;BerchtesgadenerLandLand
Hesse Bad+Heizung GmbH & Co. KG,"58239 Schwerte, Germany",58239,51.43065445,7.568047869412696,150,Coesfeld;Paderborn
Hesselbach GmbH,"42853 Remscheid, Germany",42853,51.18307049191557,7.183036678192349,150,Mettmann;MuelheimanderRuhrStadt;Heinsberg;KoblenzStadt;Oberbergischer
HIDROS Deutschland,"53359 Rheinbach, Germany",53359,50.62008562806643,6.9505987095340656,150,Cochem_ZellLand;HerneStadt;LeverkusenStadt;Siegen_Wittgenstein;DuisburgStadt
Höber GmbH,"94034 Passau, Germany",94034,48.593963,13.44984601832506,150,Landshut;RegensburgLandLand
Höfer GmbH,"56170 Bendorf, Germany",56170,50.43208246253788,7.574446559326541,150,DuesseldorfStadt;GießenLand;Rhein_Pfalz_Land
Höffken GmbH,"47057 Duisburg-Neudorf, Germany",47057,51.42467784308181,6.788731937895683,150,EmslandLand;Rhein_Neuss;Rhein_Erft_;MuelheimanderRuhrStadt
Holz und Sonne - GmbH,"76855 Annweiler, Germany",76855,49.20795985,7.963378951198412,150,Dillingena.d.DonauLand;KaiserslauternLand;Darmstadt
Hopff e.K. Bäder - Sanitär - Heizungsanlagen,"46047 Oberhausen, Germany",46047,51.476079601644834,6.8806124027035045,150,Recklinghausen;NeuwiedLand;Rhein_Neuss;MuelheimanderRuhrStadt
Horst Hüller GmbH,"38446 Wolfsburg, Germany",38446,52.37507955,10.834302226506944,150,UelzenLand;SalzgitterStadt;Hameln_PyrmontLand;WolfenbuettelLand;CelleLand
HRV Kälte-Klima GmbH Kälte - Klima - Lüftungsbau,"52068 Aachen, Germany",52068,50.77658938846035,6.123028043888652,150,Rhein_Erft_
HSB Seefeldt GmbH,"47877 Willich, Germany",47877,51.26128575,6.523193167643982,150,Wesel;RemscheidStadt;Dueren
HSF Künzel GmbH,"04509 Delitzsch, Germany",4509,51.515961600000004,12.361533604221835,150,OberhavelLand;NordsachsenLand;Anhalt_BitterfeldLand
Hübner GmbH Gebäudetechnik,"74743 Seckach, Germany",74743,49.43584894999999,9.337599991895537,150,WiesbadenLandeshauptstadt;Main_Kinzig_Land;SpeyerStadt;BadKissingenLand;Schweinfurt
Huhn Haustechnik GmbH,"61348 Bad Homburg, Germany",61348,50.226414956668435,8.61137138590495,150,EifelBitburg_PruemLand;NeuwiedLand;Mainz_BingenLand;Aschaffenburg;WiesbadenLandeshauptstadt
Hunke GmbH - Heizung - Sanitär,"59427 Unna, Germany",59427,51.53448865,7.783236477141997,150,Rhein_Sieg_;OsnabrueckStadt;HagenStadt;BonnStadt;MuelheimanderRuhrStadt
Hüttenbrauck Kälte-Klimatechnik GmbH,"56077 Koblenz, Germany",56077,50.36341270616408,7.626696871244946,150,GrafschaftBentheimLand;NeuwiedLand;Rhein_Pfalz_Land;Alzey_WormsLand;OffenbachamMainStadt
hydro-fact Matthias Maaßen,"52525 Heinsberg, Germany",52525,51.0593129,6.068108468436552,150,MoenchengladbachStadt;Hochsauerland
Hydrodrill Bohrgesellschaft GbR,"89362 Offingen, Germany",89362,48.48083935,10.374658626214856,150,BoeblingenLand;GuenzburgLand;GoeppingenLand;Weißenburg_Gunzenhausen;LudwigsburgLand
Igor Berezin Meisterbetrieb,"58644 Iserlohn, Germany",58644,51.34047465,7.685585893779902,150,AltenkirchenWesterwald;Oberbergischer;BonnStadt;Olpe;OberhausenStadt
Ing. D. Raubald GmbH,"38855 Wernigerode, Germany",38855,51.841250696509974,10.786177770142162,150,NordhausenLand;Dessau_RosslauStadt;HildesheimLand
Ing. Fritz Bissert GmbH & Co. KG,"65719 Hofheim, Germany",65719,50.0858055028915,8.414573282231519,150,NeuwiedLand;FrankfurtamMainStadt;VogelsbergLand;Rhoen_GrabfeldLand;Rhein_Sieg_
Innovative Bausysteme GmbH,"09669 Frankenberg, Germany",9669,50.918770200000004,13.084682243748412,150,WeimarStadt
ISH Innovative Sanitär- & Heizungstechnik,"19386 Lübz, Germany",19386,53.4641591169203,12.052273945037255,150,LueneburgLand;Luechow_DannenbergLand
ITE Industrievertretung Torsten Enders,"09496 Pobershau, Germany",9496,50.6009442,13.18666708507275,150,MittelsachsenLand;HofLandLand;ZwickauLand
Jakob Drehwald GmbH,"55116 Mainz, Germany",55116,49.99931595978293,8.270097236355854,150,LudwigshafenamRheinStadt;GrafschaftBentheimLand;PirmasensStadt
Jan Labanc,"54310 Ralingen, Germany",54310,49.806306795802925,6.514866688668237,150,RegionalverbandSaarbruecken;SuedwestpfalzLand;Merzig_WadernLand
JANSSEN CARL HEINZ GmbH,"31061 Alfeld (Leine), Germany",31061,51.98658215705693,9.815952780933713,150,Guetersloh;WolfsburgStadt
Johann Nendel Sanitär- und Heizungstechnik GmbH,"91056 Erlangen, Germany",91056,49.58910585,10.954376203489751,150,EichstaettLand;ForchheimLand
Johann Schwaiger GmbH,"83471 Berchtesgaden, Germany",83471,47.593225399999994,13.005234541566713,150,BerchtesgadenerLandLand
Johs. Lenz GmbH,"22113 Oststeinbek, Germany",22113,53.53422687958341,10.149538576957653,150,Soltau_FallingbostelLand;HamburgBundesland
Jordan & Kremer GmbH,"60316 Frankfurt am Main, Germany",60316,50.1207448414116,8.696526018402373,150,Mainz_BingenLand;Lahn_Dill_Land;Neustadta.d.Aisch_BadW.
Julius Gaiser GmbH & Co. KG,"89077 Ulm, Germany",89077,48.3923482,9.97116408139515,150,GoeppingenLand;LandsbergamLechLand;Memmingen;BiberachLand;UlmUniversitaetsstadtStadt
JUNG GmbH Sanitär & Heizungstechnik,"44797 Bochum, Germany",44797,51.43057868998478,7.230033332263187,150,OsnabrueckLand;BonnStadt;StaedteregionAachen;SolingenStadt;HagenStadt
Jura-Kälte GmbH,"91180 Heideck, Germany",91180,49.12984735,11.11535641255102,150,UnterallgaeuLand;Bayreuth;HarburgLand;AugsburgLandLand;KulmbachLand
Jürgen Heitger Ing. GmbH,"22419 Hamburg, Germany",22419,53.66578433562939,10.004295775929423,150,UelzenLand;DelmenhorstStadt;Rendsburg_Eckernfoerde
Jurisch Haustechnik GmbH,"01917 Kamenz/ OT Deutschbaselitz, Germany",1917,51.279482283450776,14.095569306166885,150,MittelsachsenLand
JW Haustechnik GmbH,"65760 Eschborn, Germany",65760,50.150552887426564,8.55976214056235,150,Main_Taunus_Land;KaiserslauternLand;Mainz_BingenLand;Main_SpessartLand;KarlsruheLandLand
K +K Kälte-Klimatechnik,"68723 Oftersheim, Germany",68723,49.3872508121821,8.578783023857456,150,Rems_Murr_Land;NeunkirchenLand;Neustadta.d.Waldnaab;Main_Kinzig_Land;HohenloheLand
Kälte Schübl GmbH,"93057 Regensburg, Germany",93057,49.0536886,12.11724016402971,150,NuernbergerLandLand;FreisingLand;PassauLandLand;LandshutLandLand;Freyung_GrafenauLand
Kälte- und Klimatechnik Hoefer - Inh. Lutz Thurmann,"29303 Bergen, Germany",29303,52.8061353,9.925799032642852,150,StadeLand
Kälte-Bast GmbH,"22525 Hamburg, Germany",22525,53.5868646109904,9.922965171616518,150,UelzenLand;Ludwigslust_Parchim
Kältetechnik Radeck & Jacobsen GmbH,"14513 Teltow, Germany",14513,52.38268460000001,13.276557558292842,150,PrignitzLand;BurgenlandLand
Karl Göpfert GmbH,"83512 Wasserburg, Germany",83512,48.04986725,12.20508993512868,150,OberallgaeuLand;StarnbergLand;EbersbergLand;Aichach_FriedbergLand;RegensburgLandLand
KEGA Kälte & Klima GmbH,"06313 Wimmelburg, Germany",6313,51.53213385,11.470734686550651,150,Dessau_RosslauStadt;BurgenlandLand
Kettner GmbH,"71083 Herrenberg, Germany",71083,48.59972965,8.879578306679097,150,Rhein_Neckar_Land;TuebingenLand
KEUL Fußbodenheizung Estrich-Fußbodenheizung-Baustoffhandel,"56132 Kemmenau, Germany",56132,50.32495954497193,7.694905222389169,150,FrankfurtOderStadt
Kinsky Dipl.-Ing. Alexander Henn eK,"58285 Gevelsberg, Germany",58285,51.3351139,7.353584382147622,150,WittenbergLand;Coesfeld;HammStadt;Euskirchen;Mettmann
KKM Haustechnik GmbH,"50823 Cologne, Germany",50823,50.94975484721943,6.923365932724571,150,HerneStadt;GelsenkirchenStadt;GrafschaftBentheimLand;Rhein_Neuss
KKT Kratochwil GmbH,"99974 Mühlhausen/Thüringen, Germany",99974,51.237598299999995,10.461968567185986,150,FuldaLand
Klima Jentzsch GmbH,"01623 Leuben-Schleinitz, Germany",1623,51.20609075,13.307003750735948,150,MeißenLand;MittelsachsenLand;GreizLand
"KLU Klima-, Luft- und Umwelttechnik Duisburg GmbH","47167 Duisburg, Germany",47167,51.5008097863635,6.798403596438563,150,Oberbergischer;BochumStadt;EmslandLand
KNIXA industrie + haustechnik GmbH,"92318 Neumarkt, Germany",92318,49.27806195,11.487427901978727,150,VerdenLand;Bayreuth;Ingolstadt;Main_SpessartLand;Wunsiedeli.Fichtelgebirge
Knothe Sanitär _ Heizung - Elektro GmbH,"44263 Dortmund, Germany",44263,51.48954256743802,7.503768132969682,150,MoenchengladbachStadt;Unna
KOESTER HEINRICH GmbH CO KG,"38100 Braunschweig, Germany",38100,52.26397406103293,10.522687376505996,150,Hameln_PyrmontLand
Kopp GmbH HLS-Technik,"94258 Frauenau, Germany",94258,48.98351990000001,13.336617166211223,150,DeggendorfLand;Straubing
Kopp Haustechnik GmbH,"34225 Baunatal, Germany",34225,51.25452599657428,9.412648631962307,150,HolzmindenLand;Hersfeld_RotenburgLand;Unna;Goettingen;Guetersloh
Kraft GmbH,"34125 Kassel, Germany",34125,51.32889102565989,9.525132552370085,150,Werra_Meißner_Land;Goettingen;GoslarLand
Krämer Erdwärme GmbH,"76706 Dettenheim-Rußheim, Germany",76706,49.1725647319272,8.41991459627964,150,FrankfurtOderStadt;LudwigshafenamRheinStadt;KarlsruheStadtStadt;SpeyerStadt;KaiserslauternStadt
Krause Schwimmbad-Technik,"21714 Hammah, Germany",21714,53.61944936979165,9.369493754359851,150,NeumuensterStadt;CuxhavenLand
KS Anlagentechnik GmbH,"03222 Lübbenau /Spreewald, Germany",3222,51.83217335,13.939672828089636,150,Potsdam_MittelmarkLand;Maerkisch_OderlandLand
"KS Kälte-, Klima- und Lüftungstechnik GmbH","55543 Bad Kreuznach, Germany",55543,49.83861100243044,7.865336376052836,150,SuedwestpfalzLand;MainzStadt;Rheingau_Taunus_Land;Limburg_WeilburgLand;Trier_SaarburgLand
Kühhorn GmbH,"90613 Großhabersdorf, Germany",90613,49.4101744,10.783981966938763,150,BambergLandLand;Main_Tauber_Land;Amberg_SulzbachLand;Erlangen_HoechstadtLand;RegensburgLandLand
Kunkel GmbH,"44359 Dortmund, Germany",44359,51.568787245417155,7.386722772068759,150,Euskirchen;DuesseldorfStadt;Hochsauerland;Coesfeld
Kupka GmbH,"44579 Castrop-Rauxel, Germany",44579,51.581497813456345,7.306871251317563,150,KrefeldStadt;Coesfeld;Borken;Rhein_Neuss;Unna
Kurt Höfflin Kälte- Klimatechnik,"79268 Bötzingen, Germany",79268,48.07143163108219,7.717286259929062,150,SigmaringenLand;RastattLand;EnzLand;EmmendingenLand
Kurtz Versorgungstechnik GmbH,"83543 Rott am Inn, Germany",83543,47.9875679,12.12717886208296,150,SaaleLand;EichstaettLand;Rheinisch_Bergischer
Lars Stoll GmbH Technischer Gebäudeservice,"20459 Hamburg, Germany",20459,53.547298311922006,9.979554249436212,150,Steinburg;Ludwigslust_Parchim;Ploen;Nordfriesland;KielLandeshauptstadt
Lenz GmbH,"53639 Königswinter, Germany",53639,50.70142452814435,7.240760463435367,150,Mayen_KoblenzLand;AltenkirchenWesterwald;Hochsauerland;Rhein_Lahn_Land;Limburg_WeilburgLand
Leo Beckmann GmbH,"48341 Münster-Altenberge, Germany",48341,52.04249085,7.478208862605294,150,DortmundStadt;Maerkischer;WittenbergLand;SolingenStadt;GelsenkirchenStadt
LET Löwer & Co. GmbH,"34277 Fuldabrück-Dörnhagen, Germany",34277,51.24165207038556,9.501096113444722,150,ErfurtStadt;Guetersloh;Goettingen;Soest;BielefeldStadt
"Leuendorff Gebäudetechnik, Energie- und Mineralölhandel GmbH","13125 Berlin, Germany",13125,52.63700179999999,13.487047653624193,150,Teltow_FlaemingLand;Elbe_ElsterLand
Liekam Haustechnik GmbH,"49076 Osnabrück, Germany",49076,52.28193249131152,8.019437376982838,150,Paderborn;BochumStadt;Minden_Luebbecke;CloppenburgLand;EssenStadt
Lindemann Haustechnik GmbH & Co. KG,"44879 Bochum-Linden, Germany",44879,51.42988830225409,7.161485465236468,150,Ennepe_Ruhr_;Mettmann
Lorenz Heizung - Lüftung - Klima GmbH,"61209 Echzell / Gettenau, Germany",61209,50.38843645,8.894802547841001,150,FrankfurtOderStadt;Main_Kinzig_Land;NeuwiedLand
Löser + Anspach GmbH,"56070 Koblenz, Germany",56070,50.374941338367435,7.588230976525044,150,KoblenzStadt;Olpe;DuesseldorfStadt;OffenbachamMainStadt
Lothar Dörr e.K.,"55120 Mainz, Germany",55120,50.019150666074935,8.22484169417063,150,Alzey_WormsLand;VulkaneifelLand;Rheingau_Taunus_Land;MiltenbergLand;LudwigshafenamRheinStadt
Lothar Stefke Kälte und Klimatechnik,"74252 Massenbachhausen, Germany",74252,49.17689122434437,9.04800011982916,150,Rhein_Pfalz_Land;Darmstadt_DieburgLand;KarlsruheStadtStadt;AschaffenburgLand;HeilbronnStadtStadt
Lotter Metall GmbH + Co.KG,"04552 Borna / OT Zedtlitz, Germany",4552,51.12067865,12.504781113050988,150,GreizLand;Unstrut_Hainich_Land;MittelsachsenLand
Lüftungs Heizungs Sanitär Anlagenbau GmbH,"06779 Raguhn, Germany",6779,51.7457778,12.253127188110295,150,Oder_SpreeLand;BrandenburganderHavel
Lutz Elektro u. Sanitär GmbH,"38239 Salzgitter, Germany",38239,52.18084481354322,10.465228935962603,150,BoerdeLand;Mansfeld_SuedharzLand;StendalLand;WolfenbuettelLand
Maier & Sohn GmbH & Co. KG,"86381 Krumbach, Germany",86381,48.243257345440114,10.369003916739796,150,SigmaringenLand;StuttgartLandeshauptstadt;EsslingenLand;ReutlingenLand;EichstaettLand
MAMMUT Kühlanlagen GmbH,"57250 Netphen, Germany",57250,50.904191851420286,8.120871449084309,150,AhrweilerLand;Oberbergischer;WittenbergLand;Cochem_ZellLand;Limburg_WeilburgLand
Manfred Graf GmbH,"76185 Karlsruhe, Germany",76185,49.012034475458535,8.35992624112265,150,KaiserslauternLand;OrtenauLand;Rhein_Neckar_Land;RastattLand;Main_Taunus_Land
Manfred Mayer Bauspenglerei Sanitär Heizung,"89192 Rammingen, Germany",89192,48.51582982732211,10.169150768126306,150,PforzheimStadtStadt;BadToelz_Wolfratshausen;ReutlingenLand;HeidenheimLand;LindauBodenseeLand
Marc Schmitz GmbH,"50933 Cologne, Germany",50933,50.941612258810395,6.881430488163072,150,HerneStadt;Soest;Heinsberg;HammStadt;KoblenzStadt
Marcel Winkel poolshop123,"23566 Lübeck, Germany",23566,53.86856148943599,10.7257835740325,150,NeumuensterStadt;Rostock
MARIO SCHÖPE - Der Bad-Profi,"76228 Karlsruhe, Germany",76228,48.9602234849485,8.478237415497183,150,HeidelbergStadtStadt;BodenseeLand;BoeblingenLand;SuedlicheWeinstraßeLand;OdenwaldLand
Mark Ellendt,"27299 Langwedel, Germany",27299,53.00272385,9.181585744284812,150,CloppenburgLand;Pinneberg;PeineLand
Markus Schwich GmbH,"21357 Bardowick, Germany",21357,53.29825938703953,10.382503324264388,150,Soltau_FallingbostelLand
Marx GmbH,"79541 Lörrach-Brombach, Germany",79541,47.64014375,7.690329139447585,150,TuttlingenLand;LoerrachLand
Mayer Bauelemente GmbH,"69242 Mühlhausen, Germany",69242,49.248948013549786,8.725313919754116,150,BirkenfeldLand;Main_SpessartLand;HeilbronnStadtStadt;LandauinderPfalzStadt;Rhein_Hunsrueck_Land
MB Gebäudetechnik GmbH,"71332 Waiblingen, Germany",71332,48.8261624,9.308938599479552,150,Ansbach;MiltenbergLand;BoeblingenLand
Meisterbetrieb Heinz & Carmen Unterberg GbR,"47228 Duisburg, Germany",47228,51.41659545578077,6.687909816103471,150,HagenStadt;GelsenkirchenStadt;KrefeldStadt;MoenchengladbachStadt
Meisterbetrieb Jochen Buck,"72584 Hülben, Germany",72584,48.52185255,9.406917775010713,150,CalwLand;Alb_Donau_Land
Meisterbetrieb Simon Seeler,"87662 Markt Kaltental/Blonhofen, Germany",87662,47.88987885,10.754931798192892,150,Kaufbeuren;Augsburg
Metzler GmbH & Co KG,"63619 Bad Orb, Germany",63619,50.2273836323813,9.34802912973134,150,Aschaffenburg;Mainz_BingenLand;OffenbachLand
Meyer & Kohlmann GmbH & Co. KG Kälte- und Klimatechnik Remscheid,"42897 Remscheid, Germany",42897,51.18750523422175,7.264249471013954,150,Paderborn;KrefeldStadt;LeverkusenStadt;Guetersloh;Hochsauerland
Michael Schuba Klimatechnik,"47877 Willich, Germany",47877,51.26128575,6.523193167643982,150,HerneStadt;Maerkischer;EssenStadt;Mettmann;MuensterStadt
"Michael Türk Sanitär, Heiz- und Umwelttechnik GmbH","31157 Sarstedt, Germany",31157,52.23643448184512,9.863498880764256,150,BremenBundesland;HolzmindenLand;Schwalm_Eder_Land;SalzgitterStadt;Luechow_DannenbergLand
MODULTEQ GmbH & Co. KG,"13156 Berlin, Germany",13156,52.5814116,13.399532797838342,150,Teltow_FlaemingLand;PotsdamStadt;PrignitzLand
Möhring Versorgungstechnik GmbH & Möhring Gebäudemanagement GmbH,"27572 Bremerhaven, Germany",27572,53.50752888618062,8.598787219167594,150,WittmundLand
Molderings Haustechnik GmbH,"47647 Kerken-Aldekerk, Germany",47647,51.44834055,6.382046946929046,150,Ennepe_Ruhr_;Viersen;HammStadt;KoelnStadt;Recklinghausen
MT-Trading oHG,"21077 Hamburg, Germany",21077,53.44131990909587,9.960266915247539,150,OldenburgOldenburgStadt;Segeberg;HerzogtumLauenburg;HamburgBundesland
MÜHLING-MONTAGEN GmbH,"63920 Großheubach, Germany",63920,49.73466465,9.227454716001066,150,Main_SpessartLand;SchwaebischHallLand;Main_Taunus_Land;FrankfurtOderStadt
Nadler Klimatechnik AG,"70734 Fellbach, Germany",70734,48.7984177,9.277421726541913,150,AnsbachLandLand;EsslingenLand;GuenzburgLand;NeustadtanderWeinstraße;CalwLand
NaturEnergieLaden GmbH & Co KG,"38350 Helmstedt, Germany",38350,52.23241984354,11.004073167602053,150,BoerdeLand;NortheimLand;WolfsburgStadt;Luechow_DannenbergLand
NHW Energieservice GmbH,"21465 Reinbek, Germany",21465,53.52326241318857,10.247788010536448,150,NeumuensterStadt;GifhornLand;DelmenhorstStadt
Nicoara Wärme-Kälte-Klimatechnik Dipl. Ing. (FH) Lucian Nicoara,"72070 Tübingen, Germany",72070,48.5215327,9.025841165624527,150,UlmUniversitaetsstadtStadt;BoeblingenLand;SigmaringenLand
Nowak GmbH,"51429 Bergisch Gladbach, Germany",51429,50.96837515,7.186964390807002,150,Hochsauerland;SolingenStadt;BonnStadt;DortmundStadt;WittenbergLand
OET Kälte & Wärme GmbH,"48607 Ochtrup, Germany",48607,52.2150857,7.172083783235706,150,LeverkusenStadt;Herford;MuelheimanderRuhrStadt;OsnabrueckStadt;Soest
OTTO HERMANN GmbH,"82008 Unterhaching, Germany",82008,48.0700547,11.622559599703937,150,OberallgaeuLand;Saale_Holzland_Land;MiesbachLand;Weilheim_SchongauLand;Landshut
"ÖwA - Öl- und Gasfeuerungen, Wärmetechnische Anlagen GmbH","45468 Mülheim, Germany",45468,51.428493395515076,6.88654066145512,150,Wesel;BonnStadt;DortmundStadt;HerneStadt
Pasberg & Neitzke GmbH,"31135 Hildesheim, Germany",31135,52.158279938618364,9.976313408682747,150,SchaumburgLand;Paderborn;GoslarLand;Herford;HelmstedtLand
Paul Heller GmbH & Co. KG,"33739 Bielefeld, Germany",33739,52.08546065157582,8.520940663506645,150,HildesheimLand;CelleLand;Hoexter;Kasseldocumenta_Stadt;MuensterStadt
Paul Trechten GmbH,"23758 Oldenburg in Holstein, Germany",23758,54.29241968905965,10.884947998949935,150,SchwerinLandeshauptstadt
PEKER Sanitär-Heizung-Solar,"68229 Mannheim, Germany",68229,49.43942614667819,8.576346447777192,150,AschaffenburgLand;BoeblingenLand;Darmstadt_DieburgLand;HeilbronnStadtStadt;Dingolfing_LandauLand
Pelzl Heizungsbau GmbH,"87600 Kaufbeuren, Germany",87600,47.88185435,10.603651287221377,150,UlmUniversitaetsstadtStadt;BadToelz_Wolfratshausen;Augsburg;Memmingen;EbersbergLand
Peter Berboth GmbH,"51063 Cologne, Germany",51063,50.96837015015017,7.005581754033276,150,BottropStadt;Rhein_Erft_;StaedteregionAachen;KoblenzStadt;Cochem_ZellLand
Peter Handrick GmbH,"09337 Callenberg/OT Falken, Germany",9337,50.81135948240723,12.693843979859496,150,GreizLand;WeimarerLandLand;ZwickauLand;ErzgebirgsLand
Peter Karl GmbH,"90579 Langenzenn, Germany",90579,49.48883485,10.781323586656933,150,Weißenburg_Gunzenhausen;KronachLand;KitzingenLand;Main_SpessartLand;HohenloheLand
Pfütze GmbH,"77933 Lahr, Germany",77933,48.335528214101146,7.865058977820648,150,HeidelbergStadtStadt;KarlsruheLandLand;EmmendingenLand;RottweilLand
Pingen Sanitär GmbH,"65843 Sulzbach, Germany",65843,50.13332405,8.532216674360956,150,Mainz_BingenLand;WetterauLand;NeustadtanderWeinstraße;Siegen_Wittgenstein;Waldeck_FrankenbergLand
PLA Pumpen- und Anlagenbau GmbH,"24568 Kaltenkirchen, Germany",24568,53.83219062345485,9.955560250683158,150,Ploen;BremenBundesland;RotenburgWuemmeLand
PMW Pumpen- und Maschinentechnik GmbH,"34576 Homberg-Berge, Germany",34576,51.02987919993263,9.417879160703992,150,NordhausenLand;KasselLand;NortheimLand
Poolservice-Salm,"55471 Biebern, Germany",55471,49.98638590590153,7.446717489006335,150,Bernkastel_WittlichLand;PirmasensStadt;Limburg_WeilburgLand;SpeyerStadt;NeuwiedLand
"Pries Heiztechnik, Inhaber: Anton Pries","90522 Oberasbach, Germany",90522,49.423604299999994,10.970870907734694,150,RothLand;Bayreuth;Bamberg;SaaleLand
PRIMATHERM® - Systemtechnik GmbH,"88480 Ulm, Germany",88480,48.26129858935187,9.916640801275186,150,Aichach_FriedbergLand;RottweilLand;GuenzburgLand;UlmUniversitaetsstadtStadt
Putzmeister Holding GmbH,"72631 Aichtal, Germany",72631,48.62785065,9.252390680962806,150,LandauinderPfalzStadt;StuttgartLandeshauptstadt;CalwLand;GoeppingenLand;SchwaebischHallLand
Räder & Fries GmbH,"67550 Worms-Abenheim, Germany",67550,49.67746231299522,8.329233579652946,150,Alzey_WormsLand;FrankenthalPfalzStadt;Dillingena.d.DonauLand;AschaffenburgLand;OffenbachamMainStadt
"Randecker GmbH, Sanitär- und Heizungsbau","72581 Dettingen an der Erms, Germany",72581,48.5267153,9.360576557616142,150,LandauinderPfalzStadt;Rems_Murr_Land;GoeppingenLand
Reichstädter Heizungsbau GmbH,"01744 Dippoldiswalde OT Reichstädt, Germany",1744,50.88174377605068,13.662438916422794,150,ErzgebirgsLand
Reimann Innovation und Umwelt,"03051 Cottbus, Germany",3051,51.71527720054167,14.35840007574787,150,BarnimLand
Reinhold Wenz & Söhne GmbH,"65329 Hohenstein - Breithardt, Germany",65329,50.19573513092786,8.100996527008494,150,Rheingau_Taunus_Land;OffenbachamMainStadt;AschaffenburgLand;Dingolfing_LandauLand
Remmetz Sanitär · Heizungstechnik,"47803 Krefeld, Germany",47803,51.34670742632783,6.551211758057383,150,Borken;Maerkischer;RemscheidStadt;KrefeldStadt
renopan AG,"53619 Rheinbreitbach, Germany",53619,50.620476927117615,7.232342414202106,150,DortmundStadt;GrafschaftBentheimLand;BottropStadt;StaedteregionAachen;Viersen
RIES GmbH,"64569 Nauheim, Germany",64569,49.952850700000006,8.462535727778182,150,SuedlicheWeinstraßeLand;Marburg_BiedenkopfLand;Rheingau_Taunus_Land;Main_Tauber_Land;AltenkirchenWesterwald
Rische Kälte- und Klimatechnik GmbH,"56751 Polch, Germany",56751,50.29831323885786,7.311690430443423,150,Mettmann;Alzey_WormsLand;OffenbachLand;RemscheidStadt;DuesseldorfStadt
RK-COOL GmbH,"03042 Cottbus, Germany",3042,51.75595702317929,14.362796708649347,150,Dahme_SpreewaldLand;CottbusStadt;GoerlitzLand;UckermarkLand
RK-Haustechnik GmbH,"86343 Königsbrunn, Germany",86343,48.26094685,10.885834557912528,150,GuenzburgLand;LandshutLandLand;Schwabach;UnterallgaeuLand;StarnbergLand
Robert Frenzel Sanitärinstallations- und Heizungsbau GmbH,"27619 Schiffdorf-Spaden, Germany",27619,53.54569511658478,8.671585249027254,150,WittmundLand;StadeLand;AmmerlandLand;DiepholzLand
Roland Gageur Elektrotechnik GmbH,"22399 Hamburg, Germany",22399,53.66383835400708,10.07222290568866,150,StadeLand;KielLandeshauptstadt
Roland Hellmann GmbH,"42857 Remscheid, Germany",42857,51.17330656514413,7.163827766990149,150,Steinfurt;Euskirchen;LeverkusenStadt;Rhein_Erft_;Coesfeld
Rose Elektrotechnik GmbH,"17094 Burg Stargard, Germany",17094,53.49269455620858,13.302271999205756,150,
Roter Kältetechnik GmbH,"30855 Langenhagen, Germany",30855,52.4581620272725,9.71211291325677,150,Minden_Luebbecke;BraunschweigStadt;GifhornLand
ROTEX Heating Systems GmbH,"74363 Güglingen, Germany",74363,49.06806048803568,9.012564783491383,150,DonnersbergLand;BodenseeLand;BadKissingenLand;MannheimUniversitaetsstadt
ROTH INDUSTRIES GMBH & CO. KG,"35232 Dautphetal, Germany",35232,50.85216556642339,8.578614910328774,150,KoblenzStadt;Kasseldocumenta_Stadt;Darmstadt_DieburgLand;AschaffenburgLand;Main_Taunus_Land
Rothe Heizung Sanitär,"31848 Bad Münder am Deister, Germany",31848,52.20253710000001,9.4162397123849,150,UelzenLand;DiepholzLand;NienburgWeserLand;FrieslandLand;Goettingen
RS Sanitär- und Gasheizungsbau GmbH,"52146 Würselen, Germany",52146,50.82927905,6.152075575967594,150,Heinsberg;BonnStadt;GelsenkirchenStadt;KrefeldStadt;DortmundStadt
Rüdiger Beck Elektrotechnik,"71726 Benningen, Germany",71726,48.94404905742866,9.23956455127868,150,GoeppingenLand;WormsStadt;Neustadta.d.Waldnaab
Rühle + Wenger GmbH,"70186 Stuttgart (Gablenberg), Germany",70186,48.77595074885236,9.207277036702905,150,HeidelbergStadtStadt;GermersheimLand;Neustadta.d.Waldnaab;TuebingenLand;FreudenstadtLand
RUHSTRAT Haus- und Versorgungstechnik GmbH,"37079 Göttingen, Germany",37079,51.5481388611715,9.88432321836156,150,Ilm_Land;HolzmindenLand;Schmalkalden_Meiningen;HildesheimLand;Hoexter
Ruml & Feller GmbH,"86633 Neuburg an der Donau, Germany",86633,48.745628,11.187972867184927,150,EichstaettLand;Amberg_SulzbachLand;Neu_UlmLand;AugsburgLandLand;KelheimLand
Sanitär- & Heizungstechnik Alfons Höke,"45527 Hattingen, Germany",45527,51.37455775,7.209486897654318,150,Coesfeld;Viersen;SolingenStadt;DuesseldorfStadt;BochumStadt
Sanitär-Heizung-Solartechnik Inh. Peer Schreiner,"59071 Hamm, Germany",59071,51.6721501,7.901836743513671,150,Waldeck_FrankenbergLand;MuelheimanderRuhrStadt;Kasseldocumenta_Stadt;SchaumburgLand;HagenStadt
Sanitärinstallation Hesse GmbH,"01277 Dresden, Germany",1277,51.03733328440829,13.798796977084224,150,ChemnitzStadt
Sanitärtechnik- Großhandel Reinwald Wagner GmbH,"09514 Lengefeld, Germany",9514,50.731083246661996,13.20168972703138,150,ErzgebirgsLand;AltenburgerLandLand
Schäffer Haustechnik GmbH,"86348 Kissing, Germany",86348,,,150,
Scharf GmbH & Co.KG,"64291 Darmstadt, Germany",64291,49.91533383398797,8.657133269360619,150,Aschaffenburg;WiesbadenLandeshauptstadt;DonnersbergLand;Dingolfing_LandauLand;WetterauLand
Scheffel GmbH & Co. KG,"71277 71277, Germany",71277,48.81094395,8.926513146569139,150,TuttlingenLand;Neu_UlmLand;Rhein_Neckar_Land;MannheimUniversitaetsstadt
Scheimann Haustechnik GmbH & Co.KG,"12247 Berlin, Germany",12247,52.43894820000001,13.347686072403539,150,Potsdam_MittelmarkLand
Schenk Sanitär- und Heizungstechnik GmbH,"13437 Berlin, Germany",13437,52.5920686,13.324557725803153,150,UckermarkLand
"Schlecht Flaschnerei, Sanitär, Heizung","88471 Laupheim, Germany",88471,48.23717186769581,9.901195768848584,150,LindauBodenseeLand;HarburgLand;Memmingen;CalwLand
Schlecht GmbH,"94234 Viechtach, Germany",94234,49.09077375,12.923882574101086,150,SchwandorfLand;VerdenLand
"Schmidt Heizung, Sanitär, Solar Freiberg GmbH","09599 Freiberg, Germany",9599,50.91276817184097,13.339268253007527,150,MeißenLand;MittelsachsenLand
Schmidt+Eger GmbH,"76227 Karlsruhe, Germany",76227,48.9952322662967,8.467449712324074,150,StuttgartLandeshauptstadt;ZollernalbLand;NeunkirchenLand;HeilbronnLandLand;BoeblingenLand
SCHÖNECKER Gebäudetechnik GmbH,"79110 Freiburg, Germany",79110,48.01580443485866,7.816799330535133,150,KonstanzLand;Baden_BadenStadtStadt
Schwedisches Wärmepumpen Center,"03042 Cottbus, Germany",3042,51.75595702317929,14.362796708649347,150,Oberspreewald_LausitzLand;CottbusStadt;MeißenLand
Schwering GmbH,"46286 Dorsten-Rhade, Germany",46286,51.73752594820497,7.000307438813107,150,Heinsberg;BochumStadt;HagenStadt;OsnabrueckStadt;Ennepe_Ruhr_
Schwuchow Sanitär- und Heizungs GmbH,"12107 Berlin, Germany",12107,52.42826875,13.396522187601605,150,BerlinBundesland;Teltow_FlaemingLand;Elbe_ElsterLand;BurgenlandLand;MagdeburgLandeshauptstadt
seepex GmbH,"46240 Bottrop, Germany",46240,51.54250187454598,6.945389400523268,150,Coesfeld;AltenkirchenWesterwald;Mettmann;Ennepe_Ruhr_;KrefeldStadt
Selz & Cie GmbH,"69126 Heidelberg, Germany",69126,49.376832133155354,8.690933393159426,150,LudwigshafenamRheinStadt;FrankfurtamMainStadt;MannheimUniversitaetsstadt;AschaffenburgLand;Rhein_Neckar_Land
SH Siegerland -SHK Gebäudetechnik,"57258 Freudenberg, Germany",57258,50.89707618615618,7.896759030674017,150,OdenwaldLand;OberhausenStadt;WiesbadenLandeshauptstadt;MoenchengladbachStadt;Unna
SHK Brodde,"48431 Rheine, Germany",48431,52.275526,7.4263621001627005,150,BielefeldStadt;OsnabrueckStadt
Siebert Gebäudetechnik GmbH & Co. KG,"34376 Immenhausen, Germany",34376,51.43404365,9.481462955368736,150,GothaLand;Hameln_PyrmontLand;Unna;Herford
Siegmund & Schulze GmbH,"12524 Berlin, Germany",12524,52.41179,13.548143876466167,150,Potsdam_MittelmarkLand;Oder_SpreeLand;CottbusStadt
Silbereis GmbH,"69226 Nußloch, Germany",69226,49.32435271383889,8.688085713178133,150,LudwigsburgLand;RastattLand;NeustadtanderWeinstraße;PirmasensStadt
SINA GmbH,"45239 Essen-Werden, Germany",45239,51.38590086342619,7.012700924034778,150,KoelnStadt;MoenchengladbachStadt;HammStadt;EmslandLand
Solartec Röder GmbH,"63607 Wächtersbach, Germany",63607,50.264238515060605,9.296386317573523,150,MiltenbergLand;Main_SpessartLand;Rhein_Hunsrueck_Land;HeidelbergStadtStadt;Aschaffenburg
Sparka Heizung-Sanitär-Klimatechnik,"46147 Oberhausen, Germany",46147,51.54270824966082,6.814471072802732,150,DortmundStadt;Olpe;OsnabrueckStadt;Rhein_Sieg_;EssenStadt
Speck Gebäudetechnik GmbH,"31311 Uetze, Germany",31311,52.45807897943923,10.160032362671094,150,Herford;LueneburgLand
Stenzel GmbH,"72760 Reutlingen, Germany",72760,48.51056055922193,9.204636901532034,150,ReutlingenLand;KarlsruheStadtStadt;Dingolfing_LandauLand
Stephan Simon MEISTER Heizungsbau & Sanitärtechnik,"63073 Offenbach am Main, Germany",63073,50.087265350298175,8.807431052035156,150,Siegen_Wittgenstein;KoblenzStadt
Stöckicht GmbH Inh. me. Gerald Schwalbach,"65201 Wiesbaden, Germany",65201,50.05297929511993,8.184961236413107,150,OffenbachamMainStadt;GrafschaftBentheimLand;Darmstadt;MainzStadt
Stoltenberg Energie GmbH,"24217 Schönberg, Germany",24217,54.40152236160996,10.3726234421455,150,Ploen;Pinneberg
Streicher GmbH - Heizung - Sanitär,"71720 Oberstenfeld, Germany",71720,49.02774327168206,9.330927250115398,150,GoeppingenLand;HaßbergeLand;SchwaebischHallLand;UlmUniversitaetsstadtStadt;Darmstadt_DieburgLand
Strobel GmbH,"72654 Neckartenzlingen, Germany",72654,48.58466415,9.244140040439877,150,LudwigsburgLand;BirkenfeldLand;HeilbronnStadtStadt;GoeppingenLand
STULZ GmbH,"22457 Hamburg, Germany",22457,53.63755925783188,9.911021378607174,150,Rendsburg_Eckernfoerde;FlensburgStadt
Süwag Energie AG,"65929 Frankfurt am Main, Germany",65929,50.10733100329648,8.54034526315714,150,Rheingau_Taunus_Land;Aschaffenburg;MiltenbergLand;WormsStadt;Mayen_KoblenzLand
Team Gruner,"32120 Hiddenhausen, Germany",32120,52.1558576,8.641268352486497,150,Unna;Hoexter;Steinfurt;VechtaLand;BielefeldStadt
TECHMASTER GmbH,"72379 Hechingen, Germany",72379,48.35438889208323,8.966252713872871,150,Breisgau_Hochschwarzwald;BirkenfeldLand;KarlsruheStadtStadt;BiberachLand;Neckar_Odenwald_
teraqsoltec solar,"12687 Berlin, Germany",12687,52.556624899999996,13.568686168250167,150,BarnimLand
tetec thermo-technik Müller GmbH & Co. KG,"85386 Eching, Germany",85386,48.29873195,11.613584126603465,150,OstallgaeuLand;Saale_Holzland_Land;Pfaffenhofena.d.IlmLand;HarburgLand;Weißenburg_Gunzenhausen
Teucher GmbH,"09456 Arnsfeld, Germany",9456,50.5773179,13.058480449557024,150,Hof
tga-service gmbh,"64372 Ober-Ramstadt, Germany",64372,49.8191469,8.753831940856443,150,PforzheimStadtStadt;SuedwestpfalzLand;OffenbachLand;Main_Tauber_Land;MannheimUniversitaetsstadt
Thomas Gerold GmbH,"83707 Bad Wiessee-Ringsee, Germany",83707,47.70540485,11.702358922769294,150,Weideni.d.OPf.;TraunsteinLand
Thorsten Kißler Heizung & Sanitär,"67133 Maxdorf, Germany",67133,49.48710955,8.291270825110098,150,Dingolfing_LandauLand;LudwigshafenamRheinStadt
Torsten Böres GmbH,"55606 Oberhausen, Germany",55606,49.778942222214546,7.508845865349758,150,Saarpfalz_Land;Merzig_WadernLand;AhrweilerLand;VulkaneifelLand;NeustadtanderWeinstraße
Torsten Kühl Gas- und Wasserinstallateurmeister,"01640 Coswig, Germany",1640,51.13294032060414,13.574042778331284,150,NordsachsenLand;Groß_GerauLand;SaechsischeSchweiz_Osterz;BautzenLand;DresdenStadt
Trane Klima- und Kältetechnisches Büro GmbH,"82152 Krailling, Germany",82152,48.0984515,11.427428224225945,150,LandsbergamLechLand;Muehldorfa.InnLand;RosenheimLandLand;Weilheim_SchongauLand
TRAUB GmbH & Co. Haustechnik KG,"82031 Grunwald, Germany",82031,48.04628985,11.53037938457634,150,Rosenheim;Muehldorfa.InnLand;SaaleLand;AugsburgLandLand;Ingolstadt
Ullmann Heizungsbau GmbH,"01844 Neustadt, OT Langburkersdorf, Germany",1844,51.032425700000005,14.224107597604851,150,MeißenLand
Upmeyer Haustechnik GmbH,"49525 Lengerich, Germany",49525,52.16615925,7.837779570123027,150,EssenStadt;Herford;Borken;Soest;RemscheidStadt
Uponor GmbH,"97437 Hassfurt, Germany",97437,50.042783,10.508615785843995,150,Bayreuth;KitzingenLand;SonnebergLand
Uwe Felsmann GmbH,"64342 Seeheim, Germany",64342,49.76105295,8.664219196386396,150,RastattLand;WormsStadt;MiltenbergLand;AschaffenburgLand;KuselLand
Uwe Zimmer Heizung - Sanitär - Dachklempnerarbeiten,"15295 Brieskow-Finkenheerd, Germany",15295,52.24081815,14.592811453849688,150,BerlinBundesland;OberhavelLand
Versorgungstechnik BSK GmbH,"02625 Bautzen, Germany",2625,51.1812160437654,14.430411527013819,150,ChemnitzStadt
Volker Blunck GmbH - Heizung - Sanitär - Elektro,"24306 Bösdorf, Germany",24306,54.16196437475096,10.422804842511788,150,Dithmarschen;LueneburgLand
Volker Kosack - Installateur- & Heizungsbaumeister,"52080 Aachen, Germany",52080,50.7868709001491,6.1483466226711325,150,WuppertalStadt;Maerkischer;EssenStadt;GrafschaftBentheimLand;DuisburgStadt
VWT Wärmetechnik GmbH,"55129 Mainz, Germany",55129,49.9516888822223,8.269561663076253,150,FrankfurtOderStadt;Limburg_WeilburgLand;AschaffenburgLand;Rhein_Pfalz_Land;RegionalverbandSaarbruecken
W. Förster GmbH,"99198 Erfurt-Büßleben, Germany",99198,51.0272819260234,11.130112980559664,150,Coburg;ErfurtStadt
W. Köthe GmbH,"30519 Hanover, Germany",30519,52.33844672842099,9.779054788104089,150,Minden_Luebbecke;PeineLand;BoerdeLand;Hameln_PyrmontLand;Luechow_DannenbergLand
Wagenhäuser GmbH,"97437 Haßfurt, Germany",97437,50.042783,10.508615785843995,150,HaßbergeLand;Wunsiedeli.Fichtelgebirge;Erlangen_HoechstadtLand;Neumarkti.d.OPf.Land
Walter Falk GmbH,"73252 Lenningen, Germany",73252,48.54883220000001,9.509145861108367,150,Alb_Donau_Land;Main_Tauber_Land;EsslingenLand;PforzheimStadtStadt
Walter Fehring GmbH,"33014 Bad Driburg, Germany",33014,51.723744247817905,9.028156820722128,150,Warendorf;Lippe;OsnabrueckLand;RegionHannoverLand;Kasseldocumenta_Stadt
Walter Gräfenstein GmbH,"45473 Mülheim an der Ruhr, Germany",45473,51.44401451275198,6.898269913775183,150,LeverkusenStadt;SolingenStadt;Recklinghausen
Walter Langen KG,"54294 Trier, Germany",54294,49.73826062390076,6.613071471223,150,Merzig_WadernLand;VulkaneifelLand;GrafschaftBentheimLand
Wärme mit System.de Ltd.,"36341 Lauterbach (Hessen), Germany",36341,50.64090785,9.35525261380022,150,EisenachStadt;Schmalkalden_Meiningen
Wärmetechnik Leickel GmbH,"44653 Herne, Germany",44653,51.54364638935319,7.1608512759869125,150,Mettmann;RemscheidStadt;Unna
WätaS Wärmetauscher Sachsen GmbH,"09526 Olbernhau, Germany",9526,50.672133380046816,13.344070529384586,150,SaechsischeSchweiz_Osterz
"Weber GmbH, Elektro- und Solaranlagen","74078 Heilbronn-Kirchhausen, Germany",74078,49.17503491101242,9.162449312278756,150,HohenloheLand;KaiserslauternStadt;FreudenstadtLand;AhrweilerLand;Wuerzburg
Weisky & Co. GmbH,"83352 Altenmarkt, Germany",83352,47.99844605,12.511632684539794,150,MuenchenLandLand;TraunsteinLand
Wenzel & Herzog GmbH,"15890 Schlaubetal / OT Fünfeichen, Germany",15890,52.16005045,14.571117922279706,150,Oberspreewald_LausitzLand;Maerkisch_OderlandLand
Werner Peters GmbH,"46485 Wesel, Germany",46485,51.665973765835005,6.644380459407362,150,BonnStadt;BochumStadt;LeverkusenStadt;Heinsberg;Mettmann
Werner Wallraff GmbH & Co.KG,"48157 Munster, Germany",48157,51.995986400171915,7.6807172350706425,150,BochumStadt;MuensterStadt;CloppenburgLand;DiepholzLand
Werrlein GmbH & Co.KG,"91443 Scheinfeld, Germany",91443,49.67021355,10.4684880696984,150,Schweinfurt;Neumarkti.d.OPf.Land;BayreuthLandLand;KulmbachLand
Wessel & Tyc Haustechnik GmbH,"28279 Bremen, Germany",28279,53.04047020894537,8.847183565260249,150,RotenburgWuemmeLand;HamburgBundesland;DiepholzLand
Weyher Haustechnik GmbH,"28844 Weyhe, Germany",28844,52.98475952927596,8.845120708002035,150,DiepholzLand;OsterholzLand;CuxhavenLand;AmmerlandLand;OldenburgOldenburgStadt
Willi Hammer GmbH - Sanitär Heizung Solar,"75181 Pforzheim-Eutingen, Germany",75181,48.8738261,8.765233532673923,150,LandauinderPfalzStadt;MannheimUniversitaetsstadt;GoeppingenLand;HeilbronnStadtStadt;Darmstadt_DieburgLand
Willig Gas - Wasser - Wärme,"64283 Darmstadt, Germany",64283,49.870095674067706,8.653086493313005,150,Neustadta.d.Waldnaab;DonnersbergLand;KarlsruheStadtStadt;Main_Tauber_Land;WetterauLand
WILO SE,"44263 Dortmund, Germany",44263,51.48954256743802,7.503768132969682,150,DuesseldorfStadt;Waldeck_FrankenbergLand;Soest;DuisburgStadt;MoenchengladbachStadt
Winfried Zahnen Gas- und Wasserinstallateurmeister,"54595 Watzerath, Germany",54595,50.21129084970681,6.419952873789955,150,SolingenStadt
Wittemann GmbH,"76297 Stutensee-Friedrichstal, Germany",76297,49.08467320544047,8.481765478387326,150,SuedwestpfalzLand;FrankenthalPfalzStadt;Main_Kinzig_Land;FreiburgimBreisgauStadt;MiltenbergLand
"Woermann & Söhne, sanitäre Anlagen und Heizung GmbH","14163 Berlin (Berlin-Zehlendorf), Germany",14163,52.437233299999995,13.241466027255047,150,AltmarkSalzwedelLand;Anhalt_BitterfeldLand;BarnimLand;BrandenburganderHavel;BurgenlandLand
Wolfgang Kozian Heizungsbau GmbH,"63128 Dietzenbach, Germany",63128,50.01079975,8.790729524494951,150,AhrweilerLand;AltenkirchenWesterwald;Alzey_WormsLand;Aschaffenburg;BadDuerkheimLand
Würth Elektrogroßhandel GmbH & Co. KG,"91522 Ansbach, Germany",91522,49.28887445,10.55976933809508,150,Aichach_FriedbergLand;Alb_Donau_Land;Amberg;Ansbach;AnsbachLandLand
Wust & Heck GmbH,"55471 Reich / Hunsrück, Germany",55471,49.98638590590153,7.446717489006335,150,AhrweilerLand;AltenkirchenWesterwald;Alzey_WormsLand;Aschaffenburg;BadDuerkheimLand
Zdoniak Elektrotechnik,"23936 Grevesmühlen, Germany",23936,53.83826208315358,11.195553764592443,150,Ostholstein
Zinnenlauf Service GmbH,"40472 Düsseldorf, Germany",40472,51.272641027116244,6.807200021807968,150,AltenkirchenWesterwald;BochumStadt;BonnStadt;Borken;BottropStadt
Zita Jacobs GmbH,"66740 Saarlouis, Germany",66740,49.31947657036562,6.75308444097593,150,Alzey_WormsLand;BadDuerkheimLand;Bernkastel_WittlichLand
ZLE Ehrlich GmbH,"76532 Baden-Baden, Germany",76532,48.8031151,8.208848972746503,150,Alzey_WormsLand;Baden_BadenStadtStadt;BirkenfeldLand;BoeblingenLand
ZOGEL GmbH,"38300 Wolfenbüttel, Germany",38300,52.15639204447906,10.554439097123396,150,AltmarkSalzwedelLand;BraunschweigStadt;BurgenlandLand
ZWS Zukunftsorientierte Wärme Systeme GmbH,"47506 Neukirchen-Vluyn, Germany",47506,51.43527775,6.5506149917785335,150,AltenkirchenWesterwald;BochumStadt;BonnStadt;Borken;BottropStadt
ELITEC Elektrische Industrietechnik GmbH,"64653 Lorsch, Germany",64653,49.6426967,8.556536015454096,150,AhrweilerLand;Alzey_WormsLand;Aschaffenburg;BadDuerkheimLand;BirkenfeldLand
Kälte-Aktiv Team GmbH,"91154 Roth, Germany",91154,49.23688415,11.118101625557133,150,Aichach_FriedbergLand;Amberg;Ansbach;Augsburg;BadToelz_Wolfratshausen
Remko GmbH & Co. KG,"32791 Lage, Germany",32791,51.98650021960944,8.784133580599393,150,BielefeldStadt;BochumStadt
Carl Mettler Elektrogroßhandels-GmbH,"66117 Saarbrücken, Germany",66117,49.2279998876929,6.9756571483495655,150,AhrweilerLand;Alzey_WormsLand;BadDuerkheimLand;Bernkastel_WittlichLand
H2 Umwelttechnik GbR,"52428 Jülich, Germany",52428,50.92898835,6.3602062087263205,150,AltenkirchenWesterwald;BochumStadt;BonnStadt;Borken;BottropStadt
Nesseler + Esser GmbH & Co. KG,"50389 Wesseling, Germany",50389,50.81590634608205,6.977998337090839,150,AltenkirchenWesterwald;Bernkastel_WittlichLand;BochumStadt;BonnStadt;Borken
Neukälte Kälte- Klima- und Wärmepumpen GmbH,"66292 Riegelsberg, Germany",66292,49.30878835158418,6.935701052781655,150,Alzey_WormsLand;BadDuerkheimLand;Bernkastel_WittlichLand
Schalk GmbH secespol deutschland gmbh,"86500 Kutzenhausen, Germany",86500,48.3538739,10.679009437129745,150,Aichach_FriedbergLand;Alb_Donau_Land;Augsburg;BadToelz_Wolfratshausen;BergstraßeLand
Secespol Deutschland gmbh,"45141 Essen, Germany",45141,51.47450091374141,7.0264283015827775,150,AltenkirchenWesterwald;BielefeldStadt;BochumStadt;BonnStadt;Borken
Maxhütte Technologie GmbH & Co. KG,"92237 Sulzbach-Rosenberg, Germany",92237,49.51259165,11.728330663641984,150,Amberg;Ansbach;Bamberg;Bayreuth
Viessmann Werke GmbH & Co. KG,"35108 Allendorf (Eder), Germany",35108,51.0383128,8.683138839169864,150,AltenkirchenWesterwald
